{"type":"FeatureCollection","features":[{"type":"Feature","geometry":{"type":"Point","coordinates":[-13.9856468,64.7298413]},"properties":{"name":"Streiti","osm_id":13391742}},{"type":"Feature","geometry":{"type":"Point","coordinates":[152.9372555,-31.4756057]},"properties":{"name":"Tacking Point Lighthouse","osm_id":17022899}},{"type":"Feature","geometry":{"type":"Point","coordinates":[-3.0788798,58.4390491]},"properties":{"name":"Wick South","osm_id":17898241}},{"type":"Feature","geometry":{"type":"Point","coordinates":[-2.500036,57.6709383]},"properties":{"name":"Macduff Pier","osm_id":21270143}},{"type":"Feature","geometry":{"type":"Point","coordinates":[21.1647929,56.8931109]},"properties":{"name":"Pв”ҖГјvilostas dienvidu mola bв”ҖГјka","osm_id":25141160}},{"type":"Feature","geometry":{"type":"Point","coordinates":[-21.9320938,64.1528606]},"properties":{"name":"Unknown","osm_id":26479019}},{"type":"Feature","geometry":{"type":"Point","coordinates":[29.8856722,31.2139964]},"properties":{"name":"в”ҳГ в”ҳГҘв•ӘВәв•Әв–’в•ӘвҢҗ в•ӘВәв”ҳГӨв•ӘГ‘в•Әв”Ӯв”ҳГўв”ҳГҘв•ӘВ»в•Әв–’в”ҳГЁв•ӘвҢҗ","osm_id":26544677}},{"type":"Feature","geometry":{"type":"Point","coordinates":[-3.5521149,51.4008239]},"properties":{"name":"Nash Point","osm_id":29062672}},{"type":"Feature","geometry":{"type":"Point","coordinates":[-5.6992345,43.5718966]},"properties":{"name":"Faro de Torres","osm_id":29822096}},{"type":"Feature","geometry":{"type":"Point","coordinates":[146.362988,-41.1765841]},"properties":{"name":"Unknown","osm_id":30606352}},{"type":"Feature","geometry":{"type":"Point","coordinates":[7.0466733,57.9824978]},"properties":{"name":"Lindesnes fyr","osm_id":31289203}},{"type":"Feature","geometry":{"type":"Point","coordinates":[15.5741907,38.1935287]},"properties":{"name":"Unknown","osm_id":31428565}},{"type":"Feature","geometry":{"type":"Point","coordinates":[6.6621342,53.5887593]},"properties":{"name":"Neuer Leuchtturm","osm_id":31991991}},{"type":"Feature","geometry":{"type":"Point","coordinates":[-6.7631626,62.0077021]},"properties":{"name":"Unknown","osm_id":32897707}},{"type":"Feature","geometry":{"type":"Point","coordinates":[150.80432,-35.0941453]},"properties":{"name":"Unknown","osm_id":33264622}},{"type":"Feature","geometry":{"type":"Point","coordinates":[-123.4329117,49.339997]},"properties":{"name":"Cape Roger Curtis Lighthouse","osm_id":33280565}},{"type":"Feature","geometry":{"type":"Point","coordinates":[153.6363335,-28.6385613]},"properties":{"name":"Cape Byron Lighthouse","osm_id":33616122}},{"type":"Feature","geometry":{"type":"Point","coordinates":[3.4774978,39.7156558]},"properties":{"name":"Far de Capdepera","osm_id":35345986}},{"type":"Feature","geometry":{"type":"Point","coordinates":[10.9951459,65.2020391]},"properties":{"name":"Sklinna fyr","osm_id":38557306}},{"type":"Feature","geometry":{"type":"Point","coordinates":[151.2463764,-33.8121316]},"properties":{"name":"Rosherville Lighthouse","osm_id":46500819}},{"type":"Feature","geometry":{"type":"Point","coordinates":[-1.9067104,36.9417012]},"properties":{"name":"Faro de la Mesa Roldв”ңГӯn","osm_id":49527318}},{"type":"Feature","geometry":{"type":"Point","coordinates":[8.3085649,54.6691596]},"properties":{"name":"Quermarkenfeuer Norddorf","osm_id":50023665}},{"type":"Feature","geometry":{"type":"Point","coordinates":[18.4512432,-34.1283233]},"properties":{"name":"Unknown","osm_id":54745778}},{"type":"Feature","geometry":{"type":"Point","coordinates":[18.4507931,-34.1281516]},"properties":{"name":"Unknown","osm_id":54745781}},{"type":"Feature","geometry":{"type":"Point","coordinates":[115.7697163,-32.1308661]},"properties":{"name":"Woodman Light","osm_id":60312138}},{"type":"Feature","geometry":{"type":"Point","coordinates":[115.7245495,-32.0538826]},"properties":{"name":"North Mole Lighthouse","osm_id":60314355}},{"type":"Feature","geometry":{"type":"Point","coordinates":[20.7018875,38.3845805]},"properties":{"name":"Unknown","osm_id":83948618}},{"type":"Feature","geometry":{"type":"Point","coordinates":[27.3376076,36.8904414]},"properties":{"name":"Cape Louros","osm_id":91866525}},{"type":"Feature","geometry":{"type":"Point","coordinates":[153.0874871,-30.92285]},"properties":{"name":"Smoky Cape","osm_id":97610242}},{"type":"Feature","geometry":{"type":"Point","coordinates":[151.7984008,-32.9185696]},"properties":{"name":"Nobbys Lighthouse","osm_id":97637286}},{"type":"Feature","geometry":{"type":"Point","coordinates":[-6.2429968,43.5932592]},"properties":{"name":"Faro de Vidio","osm_id":100170985}},{"type":"Feature","geometry":{"type":"Point","coordinates":[-5.133903,48.4222263]},"properties":{"name":"Phare de la Jument","osm_id":117081598}},{"type":"Feature","geometry":{"type":"Point","coordinates":[-3.1257644,53.4131624]},"properties":{"name":"Leasowe Lighthouse","osm_id":150846874}},{"type":"Feature","geometry":{"type":"Point","coordinates":[-76.202089,43.5740174]},"properties":{"name":"Selkirk Lighthouse","osm_id":158644867}},{"type":"Feature","geometry":{"type":"Point","coordinates":[-86.181307,36.838988]},"properties":{"name":"Stevns Fyr","osm_id":161602850}},{"type":"Feature","geometry":{"type":"Point","coordinates":[-14.0137559,28.7154387]},"properties":{"name":"Faro del Toston","osm_id":171910059}},{"type":"Feature","geometry":{"type":"Point","coordinates":[12.5832172,45.4785418]},"properties":{"name":"Faro di Piave Vecchia","osm_id":174203769}},{"type":"Feature","geometry":{"type":"Point","coordinates":[-2.0613638,57.1456419]},"properties":{"name":"Unknown","osm_id":175990174}},{"type":"Feature","geometry":{"type":"Point","coordinates":[153.5507619,-28.1649985]},"properties":{"name":"Point Danger Lighthouse","osm_id":186196279}},{"type":"Feature","geometry":{"type":"Point","coordinates":[-4.9991625,58.6254769]},"properties":{"name":"Cape Wrath","osm_id":194470712}},{"type":"Feature","geometry":{"type":"Point","coordinates":[-9.4464095,38.6956107]},"properties":{"name":"Farol da Guia","osm_id":196052488}},{"type":"Feature","geometry":{"type":"Point","coordinates":[-8.9965214,37.0229105]},"properties":{"name":"Farol do Cabo de Sв”ңГәo Vicente","osm_id":199182482}},{"type":"Feature","geometry":{"type":"Point","coordinates":[-22.7140564,64.0400281]},"properties":{"name":"Sandgerв”ңв–‘i","osm_id":206196246}},{"type":"Feature","geometry":{"type":"Point","coordinates":[120.9921426,13.5213996]},"properties":{"name":"Escarceo Point Lighthouse","osm_id":206258158}},{"type":"Feature","geometry":{"type":"Point","coordinates":[-4.4073436,59.0847125]},"properties":{"name":"Sule Skerry Lighthouse","osm_id":221017098}},{"type":"Feature","geometry":{"type":"Point","coordinates":[8.3547086,54.6311729]},"properties":{"name":"Leuchtturm Amrum","osm_id":224428856}},{"type":"Feature","geometry":{"type":"Point","coordinates":[-2.9608505,57.6805176]},"properties":{"name":"Unknown","osm_id":241788412}},{"type":"Feature","geometry":{"type":"Point","coordinates":[144.9127096,-37.8668509]},"properties":{"name":"Timeball Tower","osm_id":244078632}},{"type":"Feature","geometry":{"type":"Point","coordinates":[17.3191204,60.7391085]},"properties":{"name":"Unknown","osm_id":244371009}},{"type":"Feature","geometry":{"type":"Point","coordinates":[12.4608594,41.8947507]},"properties":{"name":"Faro del Gianicolo","osm_id":249332339}},{"type":"Feature","geometry":{"type":"Point","coordinates":[-80.3257286,-0.17388]},"properties":{"name":"Punta Ballena","osm_id":249407984}},{"type":"Feature","geometry":{"type":"Point","coordinates":[3.2706504,39.4140232]},"properties":{"name":"Punta de ses Crestes","osm_id":251386900}},{"type":"Feature","geometry":{"type":"Point","coordinates":[150.0499445,-37.261886]},"properties":{"name":"Green Cape","osm_id":252033066}},{"type":"Feature","geometry":{"type":"Point","coordinates":[-1.2748792,59.8540763]},"properties":{"name":"Sumburgh Head Lighthouse","osm_id":254197330}},{"type":"Feature","geometry":{"type":"Point","coordinates":[-1.6272629,60.4893067]},"properties":{"name":"Esha Ness Lighthouse","osm_id":254519723}},{"type":"Feature","geometry":{"type":"Point","coordinates":[-3.5093175,47.6474101]},"properties":{"name":"Phare de Pen-Men","osm_id":255359392}},{"type":"Feature","geometry":{"type":"Point","coordinates":[-122.9713794,48.7890332]},"properties":{"name":"Patos Island Light","osm_id":255577387}},{"type":"Feature","geometry":{"type":"Point","coordinates":[18.3684146,39.7958972]},"properties":{"name":"Faro di Capo Santa Maria di Leuca","osm_id":255756917}},{"type":"Feature","geometry":{"type":"Point","coordinates":[8.4974144,53.3239386]},"properties":{"name":"Oberfeuer Harriersand","osm_id":256318227}},{"type":"Feature","geometry":{"type":"Point","coordinates":[-70.9545077,42.3398479]},"properties":{"name":"Deer Island Light","osm_id":257496036}},{"type":"Feature","geometry":{"type":"Point","coordinates":[-70.2884497,41.6362804]},"properties":{"name":"Hyannis Harbor Light","osm_id":257496037}},{"type":"Feature","geometry":{"type":"Point","coordinates":[-70.894482,41.6037948]},"properties":{"name":"Butler Flats Light","osm_id":257496038}},{"type":"Feature","geometry":{"type":"Point","coordinates":[-70.9576735,42.3302159]},"properties":{"name":"Long Island Head Light","osm_id":257496039}},{"type":"Feature","geometry":{"type":"Point","coordinates":[-70.909123,41.6269401]},"properties":{"name":"Palmer Island Light","osm_id":257496041}},{"type":"Feature","geometry":{"type":"Point","coordinates":[-70.7574965,41.4688143]},"properties":{"name":"Tarpaulin Cove Light","osm_id":257496042}},{"type":"Feature","geometry":{"type":"Point","coordinates":[-70.5030608,41.3908772]},"properties":{"name":"Edgartown Harbor Light","osm_id":257496043}},{"type":"Feature","geometry":{"type":"Point","coordinates":[-70.7173225,41.6692995]},"properties":{"name":"Bird Island Light","osm_id":257496044}},{"type":"Feature","geometry":{"type":"Point","coordinates":[-70.8336721,42.5054252]},"properties":{"name":"Marblehead Light","osm_id":257496045}},{"type":"Feature","geometry":{"type":"Point","coordinates":[-70.7859464,42.5364685]},"properties":{"name":"Bakers Island Light","osm_id":257496047}},{"type":"Feature","geometry":{"type":"Point","coordinates":[-70.7956506,41.650872]},"properties":{"name":"Ned'S Point Light","osm_id":257496048}},{"type":"Feature","geometry":{"type":"Point","coordinates":[-70.1691725,41.6517311]},"properties":{"name":"Bass River Light (West Dennis Light)","osm_id":257496052}},{"type":"Feature","geometry":{"type":"Point","coordinates":[-71.0347895,41.3969902]},"properties":{"name":"Buzzards Bay Entrance Light","osm_id":257496053}},{"type":"Feature","geometry":{"type":"Point","coordinates":[-69.9571623,41.8590422]},"properties":{"name":"Three Sisters Light #1","osm_id":257496061}},{"type":"Feature","geometry":{"type":"Point","coordinates":[-70.2809248,41.7226492]},"properties":{"name":"Sandy Neck Light","osm_id":257496067}},{"type":"Feature","geometry":{"type":"Point","coordinates":[-70.6612135,41.6802469]},"properties":{"name":"Wings Neck Light","osm_id":257496068}},{"type":"Feature","geometry":{"type":"Point","coordinates":[-69.9498826,41.6714041]},"properties":{"name":"Chatham Light","osm_id":257496069}},{"type":"Feature","geometry":{"type":"Point","coordinates":[-69.9570765,41.8594469]},"properties":{"name":"Three Sisters Light #2","osm_id":257496078}},{"type":"Feature","geometry":{"type":"Point","coordinates":[-70.866462,42.5264843]},"properties":{"name":"Fort Pickering Light","osm_id":257496086}},{"type":"Feature","geometry":{"type":"Point","coordinates":[-69.956983,41.8598524]},"properties":{"name":"Three Sisters Light #3","osm_id":257496087}},{"type":"Feature","geometry":{"type":"Point","coordinates":[-70.9497263,41.4143858]},"properties":{"name":"Cuttyhunk Light","osm_id":257496089}},{"type":"Feature","geometry":{"type":"Point","coordinates":[-70.6941783,41.6309637]},"properties":{"name":"Cleveland East Ledge Light","osm_id":257496091}},{"type":"Feature","geometry":{"type":"Point","coordinates":[9.5667293,40.9204835]},"properties":{"name":"Unknown","osm_id":259439071}},{"type":"Feature","geometry":{"type":"Point","coordinates":[10.8669082,54.0855391]},"properties":{"name":"Leuchtturm Pelzerhaken","osm_id":260660854}},{"type":"Feature","geometry":{"type":"Point","coordinates":[80.2794416,13.0397156]},"properties":{"name":"ОұВ«ГңОұВ»ГҘОұВ«вҢҗОұВ»Г¬ОұВ«вҢҗОұВ»ГӘ ОұВ«В«ОұВ»ГҘОұВ«в–‘ОұВ«в”җОұВ«вҢҗОұВ«в•ӣ ОұВ«ГІОұВ«в–“ОұВ«Г–ОұВ»Г¬ОұВ«ГІОұВ«в–‘ОұВ»ГӘ ОұВ«в•ЎОұВ«в”җОұВ«в”ӮОұВ«ГІОұВ»Г¬ОұВ«ГІОұВ«В«ОұВ»Г¬","osm_id":262792987}},{"type":"Feature","geometry":{"type":"Point","coordinates":[-83.1399325,42.1681746]},"properties":{"name":"Grosse Ile North Channel Range Front Light","osm_id":263426390}},{"type":"Feature","geometry":{"type":"Point","coordinates":[134.6431933,34.2391428]},"properties":{"name":"ПғВЎВҪПғв”ӨГ„П„ГјВ»ПғГ…в–‘","osm_id":265049730}},{"type":"Feature","geometry":{"type":"Point","coordinates":[17.8555341,-32.8277168]},"properties":{"name":"Cape Columbine Lighthouse","osm_id":265613303}},{"type":"Feature","geometry":{"type":"Point","coordinates":[136.7051452,-36.0579706]},"properties":{"name":"Cape du Couedic Lighthouse","osm_id":267904359}},{"type":"Feature","geometry":{"type":"Point","coordinates":[168.8470512,-46.6600622]},"properties":{"name":"Waipapa Point Lighthouse","osm_id":268897689}},{"type":"Feature","geometry":{"type":"Point","coordinates":[18.4877808,-33.881708]},"properties":{"name":"Milnerton Lighthouse","osm_id":268968708}},{"type":"Feature","geometry":{"type":"Point","coordinates":[-1.0890453,50.7783104]},"properties":{"name":"Unknown","osm_id":269331345}},{"type":"Feature","geometry":{"type":"Point","coordinates":[-3.786597,51.2455341]},"properties":{"name":"Lynmouth Foreland Lighthouse","osm_id":269343948}},{"type":"Feature","geometry":{"type":"Point","coordinates":[10.8430112,45.8833282]},"properties":{"name":"Unknown","osm_id":270344693}},{"type":"Feature","geometry":{"type":"Point","coordinates":[8.3583364,53.5991563]},"properties":{"name":"Leuchtfeuer Fedderwardersiel","osm_id":270743118}},{"type":"Feature","geometry":{"type":"Point","coordinates":[10.9197806,42.3207509]},"properties":{"name":"Faro di Capel Rosso","osm_id":270824306}},{"type":"Feature","geometry":{"type":"Point","coordinates":[12.2841277,44.4919138]},"properties":{"name":"Unknown","osm_id":270999676}},{"type":"Feature","geometry":{"type":"Point","coordinates":[8.9320839,42.6445598]},"properties":{"name":"Phare de la Pietra","osm_id":271322766}},{"type":"Feature","geometry":{"type":"Point","coordinates":[9.7112446,55.0779631]},"properties":{"name":"Nordborg Fyr","osm_id":271925372}},{"type":"Feature","geometry":{"type":"Point","coordinates":[3.212287,39.9613679]},"properties":{"name":"Far de Formentor","osm_id":274070169}},{"type":"Feature","geometry":{"type":"Point","coordinates":[-1.2773107,46.1629815]},"properties":{"name":"Unknown","osm_id":275019099}},{"type":"Feature","geometry":{"type":"Point","coordinates":[-5.1509064,48.445639]},"properties":{"name":"Phare de Nividic","osm_id":275049016}},{"type":"Feature","geometry":{"type":"Point","coordinates":[-5.4840063,56.4228841]},"properties":{"name":"Dunollie Lighthouse","osm_id":275714830}},{"type":"Feature","geometry":{"type":"Point","coordinates":[-73.2256601,44.4700005]},"properties":{"name":"Burlington Light South","osm_id":276320028}},{"type":"Feature","geometry":{"type":"Point","coordinates":[-5.8308663,55.8741487]},"properties":{"name":"Skervuile Lighthouse","osm_id":276611856}},{"type":"Feature","geometry":{"type":"Point","coordinates":[13.5157166,43.6228135]},"properties":{"name":"Faro di Ancona","osm_id":277060613}},{"type":"Feature","geometry":{"type":"Point","coordinates":[13.0154223,43.8510395]},"properties":{"name":"Faro di Fano","osm_id":277063575}},{"type":"Feature","geometry":{"type":"Point","coordinates":[6.1651272,62.6850992]},"properties":{"name":"Ulla fyr","osm_id":277366315}},{"type":"Feature","geometry":{"type":"Point","coordinates":[-3.4968407,50.5424837]},"properties":{"name":"Unknown","osm_id":277658479}},{"type":"Feature","geometry":{"type":"Point","coordinates":[-78.8222613,43.8641558]},"properties":{"name":"Unknown","osm_id":278577264}},{"type":"Feature","geometry":{"type":"Point","coordinates":[8.3612109,54.6453259]},"properties":{"name":"Leitfeuer Nebel","osm_id":278650794}},{"type":"Feature","geometry":{"type":"Point","coordinates":[8.5599427,53.5536501]},"properties":{"name":"Kaiserschleuse Ostfeuer (Pingelturm)","osm_id":278680435}},{"type":"Feature","geometry":{"type":"Point","coordinates":[-9.9295222,52.5270395]},"properties":{"name":"Unknown","osm_id":278773863}},{"type":"Feature","geometry":{"type":"Point","coordinates":[-4.8787982,55.9423494]},"properties":{"name":"Cloch Lighthouse","osm_id":278862447}},{"type":"Feature","geometry":{"type":"Point","coordinates":[-8.8010949,42.3966174]},"properties":{"name":"Unknown","osm_id":279464803}},{"type":"Feature","geometry":{"type":"Point","coordinates":[16.8266273,47.8604368]},"properties":{"name":"Leuchtturm Podersdorf","osm_id":279937798}},{"type":"Feature","geometry":{"type":"Point","coordinates":[8.0214639,53.7004313]},"properties":{"name":"Antennentrв”ңГұger Schillig (ehem.Oberfeuer)","osm_id":280275246}},{"type":"Feature","geometry":{"type":"Point","coordinates":[-8.1757566,43.4136613]},"properties":{"name":"Unknown","osm_id":280710576}},{"type":"Feature","geometry":{"type":"Point","coordinates":[7.1482303,53.6459286]},"properties":{"name":"Unknown","osm_id":280776476}},{"type":"Feature","geometry":{"type":"Point","coordinates":[151.2615567,-33.8177323]},"properties":{"name":"Grotto Point Lighthouse","osm_id":281356861}},{"type":"Feature","geometry":{"type":"Point","coordinates":[3.1766797,42.4395194]},"properties":{"name":"Phare solaire du Cap Cerbв”ңВҝre","osm_id":281596262}},{"type":"Feature","geometry":{"type":"Point","coordinates":[8.1721735,43.9552935]},"properties":{"name":"Faro di Capo Mele","osm_id":281755658}},{"type":"Feature","geometry":{"type":"Point","coordinates":[23.096964,65.6972701]},"properties":{"name":"Unknown","osm_id":281984905}},{"type":"Feature","geometry":{"type":"Point","coordinates":[9.2183732,44.2986619]},"properties":{"name":"Faro di Portofino","osm_id":282049360}},{"type":"Feature","geometry":{"type":"Point","coordinates":[5.9673277,62.4899617]},"properties":{"name":"Alnes fyr","osm_id":282358637}},{"type":"Feature","geometry":{"type":"Point","coordinates":[-81.6727817,45.2576784]},"properties":{"name":"Big Tub Lighthouse","osm_id":282532243}},{"type":"Feature","geometry":{"type":"Point","coordinates":[19.3024855,-34.6304138]},"properties":{"name":"Danger Point Lighthouse","osm_id":282640509}},{"type":"Feature","geometry":{"type":"Point","coordinates":[-0.0926552,38.9330765]},"properties":{"name":"Unknown","osm_id":282687469}},{"type":"Feature","geometry":{"type":"Point","coordinates":[-1.3138958,50.7672992]},"properties":{"name":"Egypt Point Light (Disused)","osm_id":283046956}},{"type":"Feature","geometry":{"type":"Point","coordinates":[11.0902386,54.2017768]},"properties":{"name":"Leuchtfeuer Dahmeshв”ңв•ўved","osm_id":283073859}},{"type":"Feature","geometry":{"type":"Point","coordinates":[-48.8139584,-28.6042142]},"properties":{"name":"Farol de Santa Marta","osm_id":283421552}},{"type":"Feature","geometry":{"type":"Point","coordinates":[-4.6492515,54.0721498]},"properties":{"name":"Unknown","osm_id":283479609}},{"type":"Feature","geometry":{"type":"Point","coordinates":[-4.6502231,54.0727857]},"properties":{"name":"Unknown","osm_id":283514747}},{"type":"Feature","geometry":{"type":"Point","coordinates":[13.6373423,54.5060122]},"properties":{"name":"Sassnitz Ostmolenfeuer","osm_id":283671333}},{"type":"Feature","geometry":{"type":"Point","coordinates":[-14.5401157,64.4022432]},"properties":{"name":"Hvalnesviti","osm_id":285662722}},{"type":"Feature","geometry":{"type":"Point","coordinates":[-4.0927545,57.5740327]},"properties":{"name":"Chanonry Lighthouse","osm_id":286746302}},{"type":"Feature","geometry":{"type":"Point","coordinates":[120.5800717,24.3715493]},"properties":{"name":"Unknown","osm_id":286764100}},{"type":"Feature","geometry":{"type":"Point","coordinates":[0.2146262,50.7383895]},"properties":{"name":"Belle Tout lighthouse","osm_id":289010448}},{"type":"Feature","geometry":{"type":"Point","coordinates":[12.1209594,54.131029]},"properties":{"name":"Petersdorf Oberfeuer","osm_id":289101759}},{"type":"Feature","geometry":{"type":"Point","coordinates":[135.861936,33.4716039]},"properties":{"name":"ВөВҝВҪОҳГ§Г„ПғЖ’в•қП„ГјВ»ПғГ…в–‘","osm_id":289118554}},{"type":"Feature","geometry":{"type":"Point","coordinates":[-2.1928803,36.7216544]},"properties":{"name":"Faro de Cabo de Gata","osm_id":289356575}},{"type":"Feature","geometry":{"type":"Point","coordinates":[-76.1843645,17.9184021]},"properties":{"name":"Morant Point Lighthouse","osm_id":290802041}},{"type":"Feature","geometry":{"type":"Point","coordinates":[-77.1576291,17.7422211]},"properties":{"name":"Portland Lighthouse","osm_id":290802756}},{"type":"Feature","geometry":{"type":"Point","coordinates":[35.4698382,33.9000392]},"properties":{"name":"в”ҳГ в”ҳГҘв•ӘВәв•Әв–’в•ӘвҢҗ в•ӘВҝв”ҳГЁв•Әв–’в”ҳГӘв•ӘВ¬","osm_id":291364668}},{"type":"Feature","geometry":{"type":"Point","coordinates":[9.9650675,54.7670672]},"properties":{"name":"Leuchtturm Falshв”ңв•ўft","osm_id":291856650}},{"type":"Feature","geometry":{"type":"Point","coordinates":[-5.5561339,56.0912731]},"properties":{"name":"Crinan Lighthouse","osm_id":291915007}},{"type":"Feature","geometry":{"type":"Point","coordinates":[8.5349123,53.1866083]},"properties":{"name":"Schwarzer Leuchtturm","osm_id":292606892}},{"type":"Feature","geometry":{"type":"Point","coordinates":[8.5184988,53.1937732]},"properties":{"name":"Unknown","osm_id":292607038}},{"type":"Feature","geometry":{"type":"Point","coordinates":[10.6919865,45.4407869]},"properties":{"name":"Unknown","osm_id":292974704}},{"type":"Feature","geometry":{"type":"Point","coordinates":[10.8775261,42.7608508]},"properties":{"name":"Unknown","osm_id":292997524}},{"type":"Feature","geometry":{"type":"Point","coordinates":[25.405643,36.4000749]},"properties":{"name":"Unknown","osm_id":293027220}},{"type":"Feature","geometry":{"type":"Point","coordinates":[9.5735171,54.8617534]},"properties":{"name":"Leuchtturm Holnis","osm_id":293153688}},{"type":"Feature","geometry":{"type":"Point","coordinates":[131.8431093,43.0731382]},"properties":{"name":"Tokarevskogo","osm_id":293258283}},{"type":"Feature","geometry":{"type":"Point","coordinates":[-2.5716296,48.5803709]},"properties":{"name":"Phare de la Petite Muette","osm_id":293470313}},{"type":"Feature","geometry":{"type":"Point","coordinates":[5.9291911,43.1172056]},"properties":{"name":"Unknown","osm_id":294714575}},{"type":"Feature","geometry":{"type":"Point","coordinates":[9.5560747,53.6216162]},"properties":{"name":"Juelssand","osm_id":295555890}},{"type":"Feature","geometry":{"type":"Point","coordinates":[4.1417581,43.4876805]},"properties":{"name":"Phare de l'Espiguette","osm_id":296911109}},{"type":"Feature","geometry":{"type":"Point","coordinates":[22.8850652,43.9900158]},"properties":{"name":"Unknown","osm_id":297459180}},{"type":"Feature","geometry":{"type":"Point","coordinates":[18.6816198,54.7002664]},"properties":{"name":"Latarnia morska Jastarnia","osm_id":297884112}},{"type":"Feature","geometry":{"type":"Point","coordinates":[8.9319241,44.3941575]},"properties":{"name":"Unknown","osm_id":297930373}},{"type":"Feature","geometry":{"type":"Point","coordinates":[8.9526946,44.391973]},"properties":{"name":"Faro di Punta Vagno","osm_id":298864979}},{"type":"Feature","geometry":{"type":"Point","coordinates":[9.8493734,44.0264656]},"properties":{"name":"Faro di San Venerio","osm_id":299044661}},{"type":"Feature","geometry":{"type":"Point","coordinates":[6.362861,43.0885338]},"properties":{"name":"Phare du Cap Blanc","osm_id":299357507}},{"type":"Feature","geometry":{"type":"Point","coordinates":[-79.665399,43.4394377]},"properties":{"name":"Oakville Lighthouse","osm_id":300473594}},{"type":"Feature","geometry":{"type":"Point","coordinates":[-4.3681062,54.4157087]},"properties":{"name":"Unknown","osm_id":300515200}},{"type":"Feature","geometry":{"type":"Point","coordinates":[-1.7744572,57.4704426]},"properties":{"name":"Buchan Ness lighthouse","osm_id":301240357}},{"type":"Feature","geometry":{"type":"Point","coordinates":[23.5675372,35.4781944]},"properties":{"name":"Unknown","osm_id":302061994}},{"type":"Feature","geometry":{"type":"Point","coordinates":[12.6217163,41.4457956]},"properties":{"name":"Faro di Capo d'Anzio","osm_id":302319490}},{"type":"Feature","geometry":{"type":"Point","coordinates":[-40.4068333,-20.7002783]},"properties":{"name":"Ilha Escalvada","osm_id":302449621}},{"type":"Feature","geometry":{"type":"Point","coordinates":[9.713317,39.9301554]},"properties":{"name":"Unknown","osm_id":303038539}},{"type":"Feature","geometry":{"type":"Point","coordinates":[14.0700584,53.7510643]},"properties":{"name":"Leuchtfeuer Ueckermв”ңв•қnde","osm_id":303046595}},{"type":"Feature","geometry":{"type":"Point","coordinates":[8.8388285,44.4174819]},"properties":{"name":"Unknown","osm_id":303930882}},{"type":"Feature","geometry":{"type":"Point","coordinates":[23.638591,35.5144386]},"properties":{"name":"Unknown","osm_id":304585668}},{"type":"Feature","geometry":{"type":"Point","coordinates":[23.5675119,35.4782483]},"properties":{"name":"056","osm_id":304589285}},{"type":"Feature","geometry":{"type":"Point","coordinates":[138.0944804,-35.6037502]},"properties":{"name":"Cape Jervis Lighthouse","osm_id":305056632}},{"type":"Feature","geometry":{"type":"Point","coordinates":[23.524154,35.268509]},"properties":{"name":"Elafonisi Lighthouse","osm_id":305265936}},{"type":"Feature","geometry":{"type":"Point","coordinates":[138.1328997,-35.8428214]},"properties":{"name":"Cape Willoughby Lighthouse","osm_id":305588916}},{"type":"Feature","geometry":{"type":"Point","coordinates":[23.6775514,35.222714]},"properties":{"name":"Unknown","osm_id":307064700}},{"type":"Feature","geometry":{"type":"Point","coordinates":[23.6778355,35.2232962]},"properties":{"name":"Unknown","osm_id":307064736}},{"type":"Feature","geometry":{"type":"Point","coordinates":[102.3745868,11.9901989]},"properties":{"name":"Unknown","osm_id":307378401}},{"type":"Feature","geometry":{"type":"Point","coordinates":[-0.6902651,37.6346889]},"properties":{"name":"Faro de Cabo de Palos","osm_id":307806837}},{"type":"Feature","geometry":{"type":"Point","coordinates":[15.679619,43.7682131]},"properties":{"name":"Unknown","osm_id":309284093}},{"type":"Feature","geometry":{"type":"Point","coordinates":[76.9796488,8.3828903]},"properties":{"name":"Kovalam Lighthouse","osm_id":309907456}},{"type":"Feature","geometry":{"type":"Point","coordinates":[22.5757735,36.7543647]},"properties":{"name":"в•¬ВӘв•¬Вјв•§Гјв•¬в”җв•§Г© в•¬Гңв•§Гјв•¬в–’в•¬в•ңв•¬Вјв•¬в•–в•§Г©","osm_id":310085225}},{"type":"Feature","geometry":{"type":"Point","coordinates":[152.7535728,-31.8434294]},"properties":{"name":"Crowdy Head Lighthouse","osm_id":310478619}},{"type":"Feature","geometry":{"type":"Point","coordinates":[-0.08961,54.1180041]},"properties":{"name":"Old Lighthouse","osm_id":310513486}},{"type":"Feature","geometry":{"type":"Point","coordinates":[120.6530833,13.7719167]},"properties":{"name":"Cape Santiago Lighthouse","osm_id":311481583}},{"type":"Feature","geometry":{"type":"Point","coordinates":[-83.7808513,46.2822596]},"properties":{"name":"Bruce Bay","osm_id":311651873}},{"type":"Feature","geometry":{"type":"Point","coordinates":[0.0155796,39.9728995]},"properties":{"name":"Far Moll de Costa","osm_id":312399257}},{"type":"Feature","geometry":{"type":"Point","coordinates":[9.743402,54.972019]},"properties":{"name":"Unknown","osm_id":312538088}},{"type":"Feature","geometry":{"type":"Point","coordinates":[145.2222442,-42.2233011]},"properties":{"name":"Bonnet Island Lighthouse","osm_id":313126882}},{"type":"Feature","geometry":{"type":"Point","coordinates":[145.2155456,-42.2109342]},"properties":{"name":"Entrance Island Lighthouse","osm_id":313126883}},{"type":"Feature","geometry":{"type":"Point","coordinates":[25.638902,-33.9550279]},"properties":{"name":"Unknown","osm_id":313628643}},{"type":"Feature","geometry":{"type":"Point","coordinates":[-17.3313312,28.0801066]},"properties":{"name":"Punta de Clavitos","osm_id":315384868}},{"type":"Feature","geometry":{"type":"Point","coordinates":[139.5648215,35.2845127]},"properties":{"name":"Unknown","osm_id":316058290}},{"type":"Feature","geometry":{"type":"Point","coordinates":[-79.8754992,-2.1808795]},"properties":{"name":"Faro del Cerro Santa Ana","osm_id":316518668}},{"type":"Feature","geometry":{"type":"Point","coordinates":[73.0260912,8.2693766]},"properties":{"name":"Minicoy Island Light House","osm_id":316624604}},{"type":"Feature","geometry":{"type":"Point","coordinates":[93.827747,6.7555574]},"properties":{"name":"Indira Point Lighthouse","osm_id":316636664}},{"type":"Feature","geometry":{"type":"Point","coordinates":[-122.3938851,37.1817414]},"properties":{"name":"Pigeon Point Light","osm_id":316739839}},{"type":"Feature","geometry":{"type":"Point","coordinates":[1.3229617,51.1141041]},"properties":{"name":"Prince of Wales Pier Lighthouse","osm_id":316774553}},{"type":"Feature","geometry":{"type":"Point","coordinates":[-13.4704201,29.2401477]},"properties":{"name":"Unknown","osm_id":316963656}},{"type":"Feature","geometry":{"type":"Point","coordinates":[152.201385,-32.7470489]},"properties":{"name":"Point Stephens Lighthouse","osm_id":318441760}},{"type":"Feature","geometry":{"type":"Point","coordinates":[152.1614092,-32.7103476]},"properties":{"name":"Inner Light","osm_id":318475725}},{"type":"Feature","geometry":{"type":"Point","coordinates":[10.2370193,42.7277879]},"properties":{"name":"Faro di Monte Poro","osm_id":319280140}},{"type":"Feature","geometry":{"type":"Point","coordinates":[-16.6567444,32.729873]},"properties":{"name":"Farol de Sв”ңГәo Lourenв”ңВәo","osm_id":321991598}},{"type":"Feature","geometry":{"type":"Point","coordinates":[-4.2850516,47.7915097]},"properties":{"name":"Mв”ңв”Өle Nord","osm_id":322118873}},{"type":"Feature","geometry":{"type":"Point","coordinates":[80.3261476,13.4212564]},"properties":{"name":"Pulicat Lighthouse","osm_id":322481116}},{"type":"Feature","geometry":{"type":"Point","coordinates":[-6.0668424,53.3940913]},"properties":{"name":"Howth Lighthouse","osm_id":322520614}},{"type":"Feature","geometry":{"type":"Point","coordinates":[-9.8195885,51.4501258]},"properties":{"name":"Mizen Head Lighthouse","osm_id":322520615}},{"type":"Feature","geometry":{"type":"Point","coordinates":[-6.1270552,53.3024253]},"properties":{"name":"Dun Laoghaire East Lighthouse","osm_id":322520617}},{"type":"Feature","geometry":{"type":"Point","coordinates":[-10.3067503,51.92537]},"properties":{"name":"Valentia Front Leading Light","osm_id":322520619}},{"type":"Feature","geometry":{"type":"Point","coordinates":[-9.6307899,53.1180064]},"properties":{"name":"Straw Island Lighthouse","osm_id":322520620}},{"type":"Feature","geometry":{"type":"Point","coordinates":[-5.797967,54.8545]},"properties":{"name":"Chaine Tower Lighthouse","osm_id":322520621}},{"type":"Feature","geometry":{"type":"Point","coordinates":[-6.9290046,55.2258654]},"properties":{"name":"Inishowen Lighthouse","osm_id":322520623}},{"type":"Feature","geometry":{"type":"Point","coordinates":[-9.2649505,53.1538954]},"properties":{"name":"Black Head (Clare)","osm_id":322520624}},{"type":"Feature","geometry":{"type":"Point","coordinates":[-9.9181261,51.6184724]},"properties":{"name":"Ardnakinna Point Lighthouse","osm_id":322520625}},{"type":"Feature","geometry":{"type":"Point","coordinates":[-5.7278176,54.9291337]},"properties":{"name":"Maidens Lighthouse","osm_id":322520627}},{"type":"Feature","geometry":{"type":"Point","coordinates":[-6.09055,54.029983]},"properties":{"name":"Vidal Bank Leading Light","osm_id":322520628}},{"type":"Feature","geometry":{"type":"Point","coordinates":[-6.1711214,55.3015803]},"properties":{"name":"Rathlin East (Altacarry Head) Lighthouse","osm_id":322520629}},{"type":"Feature","geometry":{"type":"Point","coordinates":[-10.3011347,51.5917781]},"properties":{"name":"Bull Rock Lighthouse","osm_id":322520637}},{"type":"Feature","geometry":{"type":"Point","coordinates":[-6.130866,53.3032483]},"properties":{"name":"Dun Laoghaire West Lighthouse","osm_id":322520639}},{"type":"Feature","geometry":{"type":"Point","coordinates":[-9.8486088,51.542842]},"properties":{"name":"Sheep's Head Lighthouse","osm_id":322520643}},{"type":"Feature","geometry":{"type":"Point","coordinates":[-6.0758445,53.275568]},"properties":{"name":"Muglins Lighthouse","osm_id":322520644}},{"type":"Feature","geometry":{"type":"Point","coordinates":[-9.747,51.653]},"properties":{"name":"Roancarrigmore Lighthouse","osm_id":322520646}},{"type":"Feature","geometry":{"type":"Point","coordinates":[-7.5541399,55.19805]},"properties":{"name":"Dunree Lighthouse","osm_id":322520650}},{"type":"Feature","geometry":{"type":"Point","coordinates":[-8.459921,54.5693388]},"properties":{"name":"Saint John's Point","osm_id":322520654}},{"type":"Feature","geometry":{"type":"Point","coordinates":[-6.2069989,52.2029602]},"properties":{"name":"Tuskar Lighthouse","osm_id":322520666}},{"type":"Feature","geometry":{"type":"Point","coordinates":[-5.9257,53.310833]},"properties":{"name":"Kish Lighthouse","osm_id":322520672}},{"type":"Feature","geometry":{"type":"Point","coordinates":[-6.0959,54.03265]},"properties":{"name":"Green Island Leading Light","osm_id":322520675}},{"type":"Feature","geometry":{"type":"Point","coordinates":[-9.9052697,51.64629]},"properties":{"name":"Castletownbere Lighthouse","osm_id":322520676}},{"type":"Feature","geometry":{"type":"Point","coordinates":[-8.4996355,51.6957364]},"properties":{"name":"Charlesfort Lighthouse","osm_id":322520677}},{"type":"Feature","geometry":{"type":"Point","coordinates":[-7.8421133,51.9427974]},"properties":{"name":"Youghal Lighthouse","osm_id":322520679}},{"type":"Feature","geometry":{"type":"Point","coordinates":[-6.079,54.019932]},"properties":{"name":"Haulbowline Lighthouse","osm_id":322520691}},{"type":"Feature","geometry":{"type":"Point","coordinates":[-10.3211774,51.9337397]},"properties":{"name":"Cromwell Point Lighthouse","osm_id":322520692}},{"type":"Feature","geometry":{"type":"Point","coordinates":[-7.5529837,52.0781281]},"properties":{"name":"Ballinacourty Point Lighthouse","osm_id":322520693}},{"type":"Feature","geometry":{"type":"Point","coordinates":[-10.6612176,52.0756543]},"properties":{"name":"Inishtearaght Lighthouse","osm_id":322520694}},{"type":"Feature","geometry":{"type":"Point","coordinates":[-7.6319899,55.2762031]},"properties":{"name":"Fanad Head Lighthouse","osm_id":322520699}},{"type":"Feature","geometry":{"type":"Point","coordinates":[-9.5342274,51.5041152]},"properties":{"name":"Copper Point Lighthouse","osm_id":322520700}},{"type":"Feature","geometry":{"type":"Point","coordinates":[-9.710217,52.58015]},"properties":{"name":"Kilcredaun Head Lighthouse","osm_id":322520701}},{"type":"Feature","geometry":{"type":"Point","coordinates":[-8.5726802,54.3286203]},"properties":{"name":"Lower Rosses Lighthouse","osm_id":322520702}},{"type":"Feature","geometry":{"type":"Point","coordinates":[-9.70455,51.47655]},"properties":{"name":"Crookhaven Lighthouse","osm_id":322520703}},{"type":"Feature","geometry":{"type":"Point","coordinates":[-6.295233,53.976]},"properties":{"name":"Dundalk Lighthouse","osm_id":322520707}},{"type":"Feature","geometry":{"type":"Point","coordinates":[-5.5253315,54.3305828]},"properties":{"name":"Angus Rock Lighthouse","osm_id":322520708}},{"type":"Feature","geometry":{"type":"Point","coordinates":[-6.9894176,52.1488247]},"properties":{"name":"Dunmore East Lighthouse","osm_id":322520710}},{"type":"Feature","geometry":{"type":"Point","coordinates":[-9.9472797,53.858145]},"properties":{"name":"Achillbeg Lighthouse","osm_id":322520713}},{"type":"Feature","geometry":{"type":"Point","coordinates":[-9.566367,53.2639]},"properties":{"name":"Cashla Bay Dir. Light","osm_id":322520714}},{"type":"Feature","geometry":{"type":"Point","coordinates":[-9.8817151,52.2708475]},"properties":{"name":"Little Samphire Island Lighthouse","osm_id":322520715}},{"type":"Feature","geometry":{"type":"Point","coordinates":[-9.5262932,53.0462724]},"properties":{"name":"Teach Solais Inis Oв”ңВЎrr","osm_id":322520717}},{"type":"Feature","geometry":{"type":"Point","coordinates":[-7.9842263,51.8256104]},"properties":{"name":"Ballycotton Lighthouse","osm_id":322520718}},{"type":"Feature","geometry":{"type":"Point","coordinates":[-9.6028899,51.3891918]},"properties":{"name":"Fastnet Lighthouse","osm_id":322520722}},{"type":"Feature","geometry":{"type":"Point","coordinates":[-7.5864951,51.9928567]},"properties":{"name":"Mionn Ard","osm_id":322520727}},{"type":"Feature","geometry":{"type":"Point","coordinates":[-5.530921,54.6450474]},"properties":{"name":"Donaghadee Lighthouse","osm_id":322520728}},{"type":"Feature","geometry":{"type":"Point","coordinates":[-6.1912487,55.2588406]},"properties":{"name":"Rue Point Lighthouse","osm_id":322520730}},{"type":"Feature","geometry":{"type":"Point","coordinates":[-43.1343108,-22.9379526]},"properties":{"name":"Farol da Fortaleza de Santa Cruz","osm_id":322767085}},{"type":"Feature","geometry":{"type":"Point","coordinates":[124.111178,11.3432655]},"properties":{"name":"Unknown","osm_id":323068109}},{"type":"Feature","geometry":{"type":"Point","coordinates":[-17.5018488,14.7237837]},"properties":{"name":"Phare des Mamelles","osm_id":323150651}},{"type":"Feature","geometry":{"type":"Point","coordinates":[124.6101318,11.0031258]},"properties":{"name":"Ormoc Lighthouse","osm_id":323609232}},{"type":"Feature","geometry":{"type":"Point","coordinates":[-16.5439269,66.5083266]},"properties":{"name":"Rauв”ңв–‘inв”ңв•‘pur","osm_id":324508456}},{"type":"Feature","geometry":{"type":"Point","coordinates":[9.6335565,39.2993359]},"properties":{"name":"Faro di Capo Ferrato","osm_id":324559793}},{"type":"Feature","geometry":{"type":"Point","coordinates":[-74.2304641,11.2501873]},"properties":{"name":"Faro Isla El Morro","osm_id":327319341}},{"type":"Feature","geometry":{"type":"Point","coordinates":[0.9697067,50.9137445]},"properties":{"name":"Dungeness Old Lighthouse","osm_id":330968733}},{"type":"Feature","geometry":{"type":"Point","coordinates":[0.97594,50.9134441]},"properties":{"name":"Dungeness Lighthouse","osm_id":330968736}},{"type":"Feature","geometry":{"type":"Point","coordinates":[-3.005913,51.248404]},"properties":{"name":"Burnham-on-Sea Low Lighthouse","osm_id":331368444}},{"type":"Feature","geometry":{"type":"Point","coordinates":[-1.4240442,55.0079851]},"properties":{"name":"Herd Groyne Lighthouse","osm_id":332134451}},{"type":"Feature","geometry":{"type":"Point","coordinates":[13.0987655,54.3170127]},"properties":{"name":"Unknown","osm_id":332711664}},{"type":"Feature","geometry":{"type":"Point","coordinates":[13.0980829,54.318633]},"properties":{"name":"Unknown","osm_id":332745817}},{"type":"Feature","geometry":{"type":"Point","coordinates":[-14.4908266,28.1096673]},"properties":{"name":"Unknown","osm_id":334328297}},{"type":"Feature","geometry":{"type":"Point","coordinates":[17.5572082,60.7288111]},"properties":{"name":"Eggegrunds fyr","osm_id":335708225}},{"type":"Feature","geometry":{"type":"Point","coordinates":[8.9011295,53.8260027]},"properties":{"name":"Leuchtfeuer Otterndorf/ Belum","osm_id":339261891}},{"type":"Feature","geometry":{"type":"Point","coordinates":[1.2753765,51.9304382]},"properties":{"name":"Dovercourt High Lighthouse","osm_id":339664362}},{"type":"Feature","geometry":{"type":"Point","coordinates":[1.2781423,51.9301163]},"properties":{"name":"Dovercourt Low Lighthouse","osm_id":339664364}},{"type":"Feature","geometry":{"type":"Point","coordinates":[8.9558143,53.8347438]},"properties":{"name":"Oberfeuer Belum","osm_id":340384841}},{"type":"Feature","geometry":{"type":"Point","coordinates":[8.9574876,53.8267669]},"properties":{"name":"Radar WSD","osm_id":340385005}},{"type":"Feature","geometry":{"type":"Point","coordinates":[16.9812743,48.1713539]},"properties":{"name":"Unknown","osm_id":340478960}},{"type":"Feature","geometry":{"type":"Point","coordinates":[-1.9841667,55.7647778]},"properties":{"name":"Berwick Lighthouse","osm_id":342240702}},{"type":"Feature","geometry":{"type":"Point","coordinates":[37.4555068,44.7069038]},"properties":{"name":"Unknown","osm_id":343079270}},{"type":"Feature","geometry":{"type":"Point","coordinates":[-86.3469566,43.2241122]},"properties":{"name":"South Breakwater Light","osm_id":344559082}},{"type":"Feature","geometry":{"type":"Point","coordinates":[-86.34133,43.2266717]},"properties":{"name":"South Pierhead Light","osm_id":344560064}},{"type":"Feature","geometry":{"type":"Point","coordinates":[-68.6068965,-52.6589607]},"properties":{"name":"Faro Cabo Espв”ңВЎritu Santo","osm_id":345518542}},{"type":"Feature","geometry":{"type":"Point","coordinates":[-69.5448795,-52.4558419]},"properties":{"name":"Faro Punta Delgada","osm_id":345518842}},{"type":"Feature","geometry":{"type":"Point","coordinates":[-70.5755887,-52.918996]},"properties":{"name":"Faro Isla Magdalena","osm_id":345519969}},{"type":"Feature","geometry":{"type":"Point","coordinates":[-47.3567848,-0.6157057]},"properties":{"name":"Farol de Salinв”ңв”Ӯpolis","osm_id":345841515}},{"type":"Feature","geometry":{"type":"Point","coordinates":[-4.2861591,47.7908359]},"properties":{"name":"Mв”ңв”Өle Ouest Lв”ңвҢҗchiagat","osm_id":348069056}},{"type":"Feature","geometry":{"type":"Point","coordinates":[-4.2847793,47.7908779]},"properties":{"name":"Mв”ңв”Өle Sud","osm_id":348069074}},{"type":"Feature","geometry":{"type":"Point","coordinates":[13.6366243,54.5082396]},"properties":{"name":"Sassnitz Westmolenfeuer / Unterfeuer","osm_id":348098427}},{"type":"Feature","geometry":{"type":"Point","coordinates":[-2.4923186,36.8284531]},"properties":{"name":"Faro de San Telmo","osm_id":348302658}},{"type":"Feature","geometry":{"type":"Point","coordinates":[-4.2846445,47.7905972]},"properties":{"name":"Feu Antв”ңвҢҗrieur","osm_id":348522765}},{"type":"Feature","geometry":{"type":"Point","coordinates":[0.2414829,50.7337669]},"properties":{"name":"Beachy Head Lighthouse","osm_id":350509083}},{"type":"Feature","geometry":{"type":"Point","coordinates":[11.042774,33.8227966]},"properties":{"name":"Phare de Taguermess","osm_id":352842146}},{"type":"Feature","geometry":{"type":"Point","coordinates":[0.197264,38.8031536]},"properties":{"name":"Faro Cabo San Antonio","osm_id":353234476}},{"type":"Feature","geometry":{"type":"Point","coordinates":[8.8582651,54.1268185]},"properties":{"name":"Leuchtturm Bв”ңв•қsum","osm_id":353352238}},{"type":"Feature","geometry":{"type":"Point","coordinates":[-3.8689267,53.3423634]},"properties":{"name":"Unknown","osm_id":353581493}},{"type":"Feature","geometry":{"type":"Point","coordinates":[-8.3145437,43.5676461]},"properties":{"name":"Cabo Prior","osm_id":353954167}},{"type":"Feature","geometry":{"type":"Point","coordinates":[13.7281798,43.3106887]},"properties":{"name":"Unknown","osm_id":353958266}},{"type":"Feature","geometry":{"type":"Point","coordinates":[80.1917364,12.6153394]},"properties":{"name":"New Lighthouse","osm_id":353978514}},{"type":"Feature","geometry":{"type":"Point","coordinates":[7.7349739,53.1688162]},"properties":{"name":"Leuchtturm Barв”ңЖ’el","osm_id":355722885}},{"type":"Feature","geometry":{"type":"Point","coordinates":[-70.9392719,41.5741231]},"properties":{"name":"Padanaram Breakwater","osm_id":358260354}},{"type":"Feature","geometry":{"type":"Point","coordinates":[18.1549076,59.3207673]},"properties":{"name":"Blockhusudden","osm_id":358356239}},{"type":"Feature","geometry":{"type":"Point","coordinates":[23.7539174,61.5175688]},"properties":{"name":"Siilinkarin Majakka","osm_id":358940376}},{"type":"Feature","geometry":{"type":"Point","coordinates":[156.3103259,52.5629572]},"properties":{"name":"Bol'sheretskiy","osm_id":360831664}},{"type":"Feature","geometry":{"type":"Point","coordinates":[3.3159172,42.3189131]},"properties":{"name":"Far del Cap de Creus","osm_id":365040912}},{"type":"Feature","geometry":{"type":"Point","coordinates":[12.1604333,54.1608037]},"properties":{"name":"Peez","osm_id":365467022}},{"type":"Feature","geometry":{"type":"Point","coordinates":[11.6937179,54.1318994]},"properties":{"name":"Leuchtfeuer Buk","osm_id":366205503}},{"type":"Feature","geometry":{"type":"Point","coordinates":[0.7684275,40.7904485]},"properties":{"name":"Far del Fangar","osm_id":366321719}},{"type":"Feature","geometry":{"type":"Point","coordinates":[-1.2978382,50.5756153]},"properties":{"name":"St. Catherine's Lighthouse","osm_id":366588870}},{"type":"Feature","geometry":{"type":"Point","coordinates":[-89.3920188,28.9718363]},"properties":{"name":"Southwest Pass Lighthouse","osm_id":367131989}},{"type":"Feature","geometry":{"type":"Point","coordinates":[-3.1846765,55.9891854]},"properties":{"name":"Leith West Breakwater Lighthouse","osm_id":367309384}},{"type":"Feature","geometry":{"type":"Point","coordinates":[-18.6472571,66.0765851]},"properties":{"name":"Unknown","osm_id":367452790}},{"type":"Feature","geometry":{"type":"Point","coordinates":[-68.7677902,44.2176546]},"properties":{"name":"Eagle Island Light","osm_id":367794388}},{"type":"Feature","geometry":{"type":"Point","coordinates":[-68.1380649,44.3542469]},"properties":{"name":"Egg Rock Light Station","osm_id":367794389}},{"type":"Feature","geometry":{"type":"Point","coordinates":[-66.9766973,44.8419963]},"properties":{"name":"Lubec Channel Light","osm_id":367795273}},{"type":"Feature","geometry":{"type":"Point","coordinates":[-68.2699054,44.2834261]},"properties":{"name":"Bear Island Light Station","osm_id":367795292}},{"type":"Feature","geometry":{"type":"Point","coordinates":[-68.7032531,44.134369]},"properties":{"name":"Deer Island Thorofare Light Station","osm_id":367795294}},{"type":"Feature","geometry":{"type":"Point","coordinates":[-68.4476379,44.1344915]},"properties":{"name":"Burnt Coat Harbor Lighthouse","osm_id":367795300}},{"type":"Feature","geometry":{"type":"Point","coordinates":[-73.2185823,40.6324499]},"properties":{"name":"Fire Island Lighthouse Visitors Center","osm_id":368062706}},{"type":"Feature","geometry":{"type":"Point","coordinates":[-79.5794444,42.3286111]},"properties":{"name":"Westfield Electric Light Station","osm_id":368062710}},{"type":"Feature","geometry":{"type":"Point","coordinates":[-124.1486894,41.0572606]},"properties":{"name":"Memorial Lighthouse","osm_id":368174433}},{"type":"Feature","geometry":{"type":"Point","coordinates":[92.3200517,20.632719]},"properties":{"name":"ОұВӘв••ОұВәГ§ОұВӘВҝОұВәГ¬ОұВӘЖ’ ОұВӘВ«ОұВӘв•ӣОұВӘв–‘ОұВәГ¬ОұВӘЖ’ОұВӘв”җОұВӘВҝ ОұВӘВӘОұВәГ¬ОұВӘВјОұВәГҮОұВӘВ¬ ОұВӘВјОұВӘв•ӣОұВӘГұОұВӘв”җОұВӘГҝОұВӘв–‘","osm_id":368385584}},{"type":"Feature","geometry":{"type":"Point","coordinates":[-4.3497645,47.7940396]},"properties":{"name":"Mв”ңв”Өle Est","osm_id":369740843}},{"type":"Feature","geometry":{"type":"Point","coordinates":[-5.8564102,57.3537217]},"properties":{"name":"Unknown","osm_id":370948544}},{"type":"Feature","geometry":{"type":"Point","coordinates":[9.8880016,54.8246118]},"properties":{"name":"Leuchtturm Kalkgrund","osm_id":373113881}},{"type":"Feature","geometry":{"type":"Point","coordinates":[19.6395676,-34.7806055]},"properties":{"name":"Quoin Light","osm_id":374141240}},{"type":"Feature","geometry":{"type":"Point","coordinates":[22.1368133,60.2008588]},"properties":{"name":"Kв”ңГұrrholm 's fyr / majakka","osm_id":377696419}},{"type":"Feature","geometry":{"type":"Point","coordinates":[-79.7058391,43.3928549]},"properties":{"name":"Unknown","osm_id":385027415}},{"type":"Feature","geometry":{"type":"Point","coordinates":[152.7118443,-24.1148421]},"properties":{"name":"Unknown","osm_id":387102136}},{"type":"Feature","geometry":{"type":"Point","coordinates":[134.6990296,33.9542667]},"properties":{"name":"Unknown","osm_id":387744952}},{"type":"Feature","geometry":{"type":"Point","coordinates":[-6.6419659,57.8568937]},"properties":{"name":"Taigh-solais Eilean Glas","osm_id":388215533}},{"type":"Feature","geometry":{"type":"Point","coordinates":[9.7401047,53.566011]},"properties":{"name":"Oberfeuer Tinsdal","osm_id":390379091}},{"type":"Feature","geometry":{"type":"Point","coordinates":[-1.3661364,54.9311958]},"properties":{"name":"The Lighthouse, Roker Cliff Park","osm_id":390486744}},{"type":"Feature","geometry":{"type":"Point","coordinates":[-0.404856,38.3529835]},"properties":{"name":"Far del Cap de l'Horta","osm_id":390728471}},{"type":"Feature","geometry":{"type":"Point","coordinates":[-33.8148732,-3.8574518]},"properties":{"name":"Farol das Rocas","osm_id":391546836}},{"type":"Feature","geometry":{"type":"Point","coordinates":[10.5431763,45.4711296]},"properties":{"name":"Unknown","osm_id":393013063}},{"type":"Feature","geometry":{"type":"Point","coordinates":[9.4042609,53.8051302]},"properties":{"name":"Glв”ңв•қckstadt Unterfeuer","osm_id":393422517}},{"type":"Feature","geometry":{"type":"Point","coordinates":[9.5310006,63.7267984]},"properties":{"name":"Kjeungskjв”ңВӘret fyr","osm_id":394039333}},{"type":"Feature","geometry":{"type":"Point","coordinates":[132.7558962,34.2799352]},"properties":{"name":"Unknown","osm_id":399909338}},{"type":"Feature","geometry":{"type":"Point","coordinates":[-122.002185,36.9607033]},"properties":{"name":"Santa Cruz West Breakwater Light","osm_id":400699453}},{"type":"Feature","geometry":{"type":"Point","coordinates":[135.0004554,34.2809095]},"properties":{"name":"Unknown","osm_id":401630316}},{"type":"Feature","geometry":{"type":"Point","coordinates":[135.5503272,35.4967835]},"properties":{"name":"ОҰГҜГ‘П„ГҜВЎОҳВҪГҝВөв•ЎВЈПғв”Ӯв•ўПғГЎГұП„Г§ГӘПғГ…в–‘","osm_id":402350938}},{"type":"Feature","geometry":{"type":"Point","coordinates":[-74.1084973,40.6013003]},"properties":{"name":"Unknown","osm_id":402519377}},{"type":"Feature","geometry":{"type":"Point","coordinates":[-9.0535366,53.254061]},"properties":{"name":"Mutton Island Lighthouse","osm_id":403871706}},{"type":"Feature","geometry":{"type":"Point","coordinates":[-2.444132,36.8198703]},"properties":{"name":"Unknown","osm_id":405862305}},{"type":"Feature","geometry":{"type":"Point","coordinates":[15.0929265,-26.6364837]},"properties":{"name":"Diaz Point","osm_id":408909566}},{"type":"Feature","geometry":{"type":"Point","coordinates":[8.8453319,38.8777534]},"properties":{"name":"Faro di Capo Spartivento","osm_id":409765393}},{"type":"Feature","geometry":{"type":"Point","coordinates":[22.1581122,60.2006655]},"properties":{"name":"Unknown","osm_id":409822882}},{"type":"Feature","geometry":{"type":"Point","coordinates":[10.3169262,54.4340523]},"properties":{"name":"Heidkate-Warnfeuer","osm_id":410335840}},{"type":"Feature","geometry":{"type":"Point","coordinates":[-4.7480979,43.4201408]},"properties":{"name":"Faro de Llanes","osm_id":410699630}},{"type":"Feature","geometry":{"type":"Point","coordinates":[-124.4242348,43.1239007]},"properties":{"name":"Coquille River Lighthouse","osm_id":410871527}},{"type":"Feature","geometry":{"type":"Point","coordinates":[-74.0539435,40.6058119]},"properties":{"name":"Fort Wadsworth Light","osm_id":411613101}},{"type":"Feature","geometry":{"type":"Point","coordinates":[-74.1201209,40.5807873]},"properties":{"name":"New Dorp Light","osm_id":411861307}},{"type":"Feature","geometry":{"type":"Point","coordinates":[-74.213388,40.5076781]},"properties":{"name":"Princes Bay Light","osm_id":411871155}},{"type":"Feature","geometry":{"type":"Point","coordinates":[16.3785579,54.4403358]},"properties":{"name":"Latarnia morska Darв”јГ©owo","osm_id":414678633}},{"type":"Feature","geometry":{"type":"Point","coordinates":[-29.345932,0.9168696]},"properties":{"name":"Penedos de Sв”ңГәo Pedro e Sв”ңГәo Paulo","osm_id":416063852}},{"type":"Feature","geometry":{"type":"Point","coordinates":[4.1322543,43.5346838]},"properties":{"name":"Unknown","osm_id":417972894}},{"type":"Feature","geometry":{"type":"Point","coordinates":[4.1318141,43.5351922]},"properties":{"name":"Unknown","osm_id":417972902}},{"type":"Feature","geometry":{"type":"Point","coordinates":[-67.2208155,-55.9635495]},"properties":{"name":"Faro Cabo de Hornos","osm_id":418621659}},{"type":"Feature","geometry":{"type":"Point","coordinates":[12.886658,53.1163271]},"properties":{"name":"Unknown","osm_id":420152049}},{"type":"Feature","geometry":{"type":"Point","coordinates":[9.21409,44.3033446]},"properties":{"name":"Unknown","osm_id":420358346}},{"type":"Feature","geometry":{"type":"Point","coordinates":[19.0919927,42.2465344]},"properties":{"name":"Unknown","osm_id":421317970}},{"type":"Feature","geometry":{"type":"Point","coordinates":[-4.9809158,52.0051184]},"properties":{"name":"Unknown","osm_id":421634834}},{"type":"Feature","geometry":{"type":"Point","coordinates":[13.1707224,58.5147758]},"properties":{"name":"Unknown","osm_id":422030915}},{"type":"Feature","geometry":{"type":"Point","coordinates":[8.5746731,53.5358885]},"properties":{"name":"Geeste Nordmole Behelfsfeuer","osm_id":423220120}},{"type":"Feature","geometry":{"type":"Point","coordinates":[-4.401966,55.8908022]},"properties":{"name":"Blythswood Beacon","osm_id":423793817}},{"type":"Feature","geometry":{"type":"Point","coordinates":[0.2035944,36.1049291]},"properties":{"name":"Unknown","osm_id":424949835}},{"type":"Feature","geometry":{"type":"Point","coordinates":[25.0870061,37.0395771]},"properties":{"name":"Unknown","osm_id":425332246}},{"type":"Feature","geometry":{"type":"Point","coordinates":[3.4438781,43.2797611]},"properties":{"name":"Unknown","osm_id":425697978}},{"type":"Feature","geometry":{"type":"Point","coordinates":[6.1559931,46.2080114]},"properties":{"name":"Phare des Eaux-Vives","osm_id":426237190}},{"type":"Feature","geometry":{"type":"Point","coordinates":[6.1569289,46.2099985]},"properties":{"name":"Phare des Pв”ңГіquis","osm_id":426618808}},{"type":"Feature","geometry":{"type":"Point","coordinates":[-2.9669621,51.5400136]},"properties":{"name":"East Usk Lighthouse","osm_id":427097208}},{"type":"Feature","geometry":{"type":"Point","coordinates":[1.6813921,52.3272416]},"properties":{"name":"Unknown","osm_id":427582786}},{"type":"Feature","geometry":{"type":"Point","coordinates":[-6.0178577,57.0183042]},"properties":{"name":"Sleat Point Lighthouse","osm_id":427669269}},{"type":"Feature","geometry":{"type":"Point","coordinates":[2.1659475,41.3609829]},"properties":{"name":"Far de Montjuв”ңВ»c","osm_id":427959994}},{"type":"Feature","geometry":{"type":"Point","coordinates":[139.1909351,-35.5091004]},"properties":{"name":"Unknown","osm_id":427966551}},{"type":"Feature","geometry":{"type":"Point","coordinates":[-81.2920734,45.2452876]},"properties":{"name":"Cabot Head Lighthouse","osm_id":428700383}},{"type":"Feature","geometry":{"type":"Point","coordinates":[11.0955919,54.409358]},"properties":{"name":"Strukkamphuk","osm_id":429439904}},{"type":"Feature","geometry":{"type":"Point","coordinates":[25.2588946,37.0333555]},"properties":{"name":"Unknown","osm_id":429931109}},{"type":"Feature","geometry":{"type":"Point","coordinates":[-122.5193055,37.5365031]},"properties":{"name":"Point Montara Light Station","osm_id":430366105}},{"type":"Feature","geometry":{"type":"Point","coordinates":[12.405284,44.2087814]},"properties":{"name":"Faro Rosso","osm_id":430542829}},{"type":"Feature","geometry":{"type":"Point","coordinates":[12.404481,44.208784]},"properties":{"name":"Faro Verde","osm_id":430542830}},{"type":"Feature","geometry":{"type":"Point","coordinates":[22.9415401,39.3524921]},"properties":{"name":"Unknown","osm_id":430928766}},{"type":"Feature","geometry":{"type":"Point","coordinates":[23.6131821,39.9918851]},"properties":{"name":"Unknown","osm_id":431015720}},{"type":"Feature","geometry":{"type":"Point","coordinates":[13.7697633,54.2058233]},"properties":{"name":"Ruden, N-Leuchtfeuer","osm_id":431061462}},{"type":"Feature","geometry":{"type":"Point","coordinates":[14.4661581,53.7116947]},"properties":{"name":"Unknown","osm_id":431063508}},{"type":"Feature","geometry":{"type":"Point","coordinates":[12.9933832,52.3517395]},"properties":{"name":"Caputher Gemв”ңв•қnde / Himmelreich","osm_id":431070821}},{"type":"Feature","geometry":{"type":"Point","coordinates":[12.9780009,52.3437735]},"properties":{"name":"Caputher Gemв”ңв•қnde / Schwielowsee","osm_id":431070823}},{"type":"Feature","geometry":{"type":"Point","coordinates":[9.8409756,54.4740995]},"properties":{"name":"Unknown","osm_id":431076368}},{"type":"Feature","geometry":{"type":"Point","coordinates":[-0.110231,39.8264166]},"properties":{"name":"Far de Nules","osm_id":431334046}},{"type":"Feature","geometry":{"type":"Point","coordinates":[3.4427567,43.2804254]},"properties":{"name":"Unknown","osm_id":431419325}},{"type":"Feature","geometry":{"type":"Point","coordinates":[-2.8236191,57.6938966]},"properties":{"name":"Unknown","osm_id":435685204}},{"type":"Feature","geometry":{"type":"Point","coordinates":[26.9447876,37.689129]},"properties":{"name":"Unknown","osm_id":436153120}},{"type":"Feature","geometry":{"type":"Point","coordinates":[-3.8081413,54.8328986]},"properties":{"name":"Hestan Island Lighthouse","osm_id":439573274}},{"type":"Feature","geometry":{"type":"Point","coordinates":[11.874925,67.4109183]},"properties":{"name":"Skomvв”ңВӘr fyr","osm_id":439809666}},{"type":"Feature","geometry":{"type":"Point","coordinates":[18.4012072,60.3690216]},"properties":{"name":"Djurstens fyr","osm_id":440384067}},{"type":"Feature","geometry":{"type":"Point","coordinates":[-4.7593962,54.0872363]},"properties":{"name":"Unknown","osm_id":440611322}},{"type":"Feature","geometry":{"type":"Point","coordinates":[-4.8375209,54.0378794]},"properties":{"name":"Chicken Rock","osm_id":441984183}},{"type":"Feature","geometry":{"type":"Point","coordinates":[-15.7079017,28.1647135]},"properties":{"name":"Faro de Punta Sardina","osm_id":442399290}},{"type":"Feature","geometry":{"type":"Point","coordinates":[12.3473364,53.4696698]},"properties":{"name":"Unknown","osm_id":442668627}},{"type":"Feature","geometry":{"type":"Point","coordinates":[11.4672431,54.0240249]},"properties":{"name":"Gollwitz","osm_id":442669275}},{"type":"Feature","geometry":{"type":"Point","coordinates":[-80.0866928,0.6488101]},"properties":{"name":"Faro San Francisco","osm_id":443470704}},{"type":"Feature","geometry":{"type":"Point","coordinates":[-4.0848667,54.7657167]},"properties":{"name":"Unknown","osm_id":443846893}},{"type":"Feature","geometry":{"type":"Point","coordinates":[9.374225,53.7589219]},"properties":{"name":"Oberfeuer Krautsand","osm_id":444014201}},{"type":"Feature","geometry":{"type":"Point","coordinates":[9.3863282,53.7545115]},"properties":{"name":"Unterfeuer Krautsand","osm_id":444014202}},{"type":"Feature","geometry":{"type":"Point","coordinates":[130.8285251,37.530367]},"properties":{"name":"Unknown","osm_id":444671024}},{"type":"Feature","geometry":{"type":"Point","coordinates":[130.91943,37.48703]},"properties":{"name":"ОҙГ…ГӨОҙГ…Г–ПҶГІВЎОҙГӯВЈПҶГҰВЈвҲһГҜВЈО©в”ӨГҮОҙВӘВјвҲһГҘГ®(ПҶГ»Г«ОҙГ©ВҝОҙГҙв–’ОҙГ®ГҮ)","osm_id":444671209}},{"type":"Feature","geometry":{"type":"Point","coordinates":[130.7971594,37.518608]},"properties":{"name":"ПҶГўВЈПҶГІГҝОҙГҙв–’ОҙГ®ГҮ","osm_id":444671223}},{"type":"Feature","geometry":{"type":"Point","coordinates":[-86.9639986,20.4954502]},"properties":{"name":"Cozumel lighthouse","osm_id":444949732}},{"type":"Feature","geometry":{"type":"Point","coordinates":[-59.5294812,13.0470852]},"properties":{"name":"South Point Lighthouse","osm_id":445330781}},{"type":"Feature","geometry":{"type":"Point","coordinates":[-59.6109287,13.0784814]},"properties":{"name":"Needhams Point Lighthouse","osm_id":445414401}},{"type":"Feature","geometry":{"type":"Point","coordinates":[130.6309292,-12.3893397]},"properties":{"name":"Charles Point","osm_id":446187022}},{"type":"Feature","geometry":{"type":"Point","coordinates":[-56.8585198,51.4605512]},"properties":{"name":"Point Amour Lighthouse","osm_id":448387859}},{"type":"Feature","geometry":{"type":"Point","coordinates":[9.4890321,53.715433]},"properties":{"name":"Pagensand-Nord, Front Lt","osm_id":448744320}},{"type":"Feature","geometry":{"type":"Point","coordinates":[9.388269,53.80038]},"properties":{"name":"Rhinplate Nord","osm_id":448747992}},{"type":"Feature","geometry":{"type":"Point","coordinates":[-9.5092544,39.4153045]},"properties":{"name":"Farol da Berlenga","osm_id":451977164}},{"type":"Feature","geometry":{"type":"Point","coordinates":[-9.4078539,39.3605717]},"properties":{"name":"Unknown","osm_id":451988617}},{"type":"Feature","geometry":{"type":"Point","coordinates":[24.9263531,59.9489612]},"properties":{"name":"Helsingin majakka","osm_id":453051110}},{"type":"Feature","geometry":{"type":"Point","coordinates":[9.987598,54.8530622]},"properties":{"name":"Unknown","osm_id":455547889}},{"type":"Feature","geometry":{"type":"Point","coordinates":[10.0694009,54.8813788]},"properties":{"name":"Gammel Pв”ңв••l Fyr","osm_id":455549721}},{"type":"Feature","geometry":{"type":"Point","coordinates":[9.1257179,53.8874991]},"properties":{"name":"Mole 4","osm_id":456011337}},{"type":"Feature","geometry":{"type":"Point","coordinates":[17.4515644,49.4575399]},"properties":{"name":"Unknown","osm_id":457546778}},{"type":"Feature","geometry":{"type":"Point","coordinates":[8.0281021,53.6966016]},"properties":{"name":"ehem. Unterfeuer Schillig","osm_id":458104724}},{"type":"Feature","geometry":{"type":"Point","coordinates":[2.9935308,39.3124193]},"properties":{"name":"sa Puntassa","osm_id":458237386}},{"type":"Feature","geometry":{"type":"Point","coordinates":[-83.3289633,41.7619198]},"properties":{"name":"Toledo Harbor Light","osm_id":458437275}},{"type":"Feature","geometry":{"type":"Point","coordinates":[153.2085341,-24.7298978]},"properties":{"name":"Sandy Cape Lighthouse","osm_id":458715043}},{"type":"Feature","geometry":{"type":"Point","coordinates":[20.8363914,63.7910671]},"properties":{"name":"Berguddens fyr","osm_id":459031066}},{"type":"Feature","geometry":{"type":"Point","coordinates":[12.6670716,55.9188865]},"properties":{"name":"Unknown","osm_id":459834258}},{"type":"Feature","geometry":{"type":"Point","coordinates":[0.9584645,49.9160554]},"properties":{"name":"Phare d'Ailly","osm_id":461813484}},{"type":"Feature","geometry":{"type":"Point","coordinates":[3.0534115,39.2652188]},"properties":{"name":"Cap de ses Salines","osm_id":461833100}},{"type":"Feature","geometry":{"type":"Point","coordinates":[135.458956,34.5834853]},"properties":{"name":"ВөГ№ВәПғГЎв•‘П„Г§ГӘПғГ…в–‘","osm_id":462138633}},{"type":"Feature","geometry":{"type":"Point","coordinates":[12.2722704,37.9350402]},"properties":{"name":"Faro di Punta Sottile","osm_id":463252426}},{"type":"Feature","geometry":{"type":"Point","coordinates":[17.2412205,54.7183039]},"properties":{"name":"Latarnia morska Czoв”јГ©pino","osm_id":463446232}},{"type":"Feature","geometry":{"type":"Point","coordinates":[12.3653778,37.9067484]},"properties":{"name":"Faro di Punta Marsala","osm_id":465207572}},{"type":"Feature","geometry":{"type":"Point","coordinates":[118.733521,9.7299862]},"properties":{"name":"Unknown","osm_id":469173268}},{"type":"Feature","geometry":{"type":"Point","coordinates":[-54.7999756,49.6878517]},"properties":{"name":"Long Point Lighthouse","osm_id":469724587}},{"type":"Feature","geometry":{"type":"Point","coordinates":[-52.6223089,47.5211687]},"properties":{"name":"Cape Spear","osm_id":470734373}},{"type":"Feature","geometry":{"type":"Point","coordinates":[-8.8498324,42.1565685]},"properties":{"name":"Unknown","osm_id":470932530}},{"type":"Feature","geometry":{"type":"Point","coordinates":[12.8831034,59.0788694]},"properties":{"name":"Duseudde","osm_id":470994660}},{"type":"Feature","geometry":{"type":"Point","coordinates":[-3.7765882,57.8650718]},"properties":{"name":"Tarbat Ness Lighthouse","osm_id":471044640}},{"type":"Feature","geometry":{"type":"Point","coordinates":[7.2724482,51.4309507]},"properties":{"name":"Unknown","osm_id":471453657}},{"type":"Feature","geometry":{"type":"Point","coordinates":[-2.8923887,56.4528318]},"properties":{"name":"Tayport Low Light","osm_id":472122741}},{"type":"Feature","geometry":{"type":"Point","coordinates":[10.8811615,42.3882771]},"properties":{"name":"Faro di Punta del Fenaio","osm_id":472459326}},{"type":"Feature","geometry":{"type":"Point","coordinates":[14.3417636,40.8121914]},"properties":{"name":"Unknown","osm_id":472481725}},{"type":"Feature","geometry":{"type":"Point","coordinates":[140.1139617,41.8681884]},"properties":{"name":"Оҳв”ӨГ„Пғв”Ӯв•ўП„ГјВ»ПғГ…в–‘","osm_id":473368158}},{"type":"Feature","geometry":{"type":"Point","coordinates":[8.6869478,54.674656]},"properties":{"name":"Leuchtturm Oland","osm_id":473376221}},{"type":"Feature","geometry":{"type":"Point","coordinates":[-0.2481893,50.8308632]},"properties":{"name":"Shoreham Harbour","osm_id":473772904}},{"type":"Feature","geometry":{"type":"Point","coordinates":[-1.5000366,55.1254531]},"properties":{"name":"Blyth Old Light","osm_id":473890888}},{"type":"Feature","geometry":{"type":"Point","coordinates":[-3.007515,53.9264838]},"properties":{"name":"Pharos Lighthouse","osm_id":475564875}},{"type":"Feature","geometry":{"type":"Point","coordinates":[-82.3583634,41.4213532]},"properties":{"name":"Beaver Creek Water Tower Light","osm_id":475651206}},{"type":"Feature","geometry":{"type":"Point","coordinates":[-82.6745653,41.4992789]},"properties":{"name":"Sandusky Harbor Breakwater Light","osm_id":475652064}},{"type":"Feature","geometry":{"type":"Point","coordinates":[-90.4972887,46.8713719]},"properties":{"name":"Michigan Island Lighthouse","osm_id":475902605}},{"type":"Feature","geometry":{"type":"Point","coordinates":[-90.7283118,47.0794718]},"properties":{"name":"Devil's Island Lighthouse","osm_id":475913964}},{"type":"Feature","geometry":{"type":"Point","coordinates":[-90.4167705,47.0766461]},"properties":{"name":"Outer Island Lighthouse","osm_id":475916954}},{"type":"Feature","geometry":{"type":"Point","coordinates":[-90.9375557,47.0031004]},"properties":{"name":"Sand Island Lighthouse","osm_id":475922855}},{"type":"Feature","geometry":{"type":"Point","coordinates":[18.6810476,57.218275]},"properties":{"name":"Nв”ңГұr fyr","osm_id":476021567}},{"type":"Feature","geometry":{"type":"Point","coordinates":[120.3665068,22.3288382]},"properties":{"name":"П„ГүГ«П„ГүГўПғв•ўв•қП„Г§ГӘПғГӯГ¶","osm_id":476662470}},{"type":"Feature","geometry":{"type":"Point","coordinates":[-87.6927304,43.7495091]},"properties":{"name":"Sheboygan Breakwater Lighthouse","osm_id":477082189}},{"type":"Feature","geometry":{"type":"Point","coordinates":[136.5933555,-35.752788]},"properties":{"name":"Cape Borda Lighthouse","osm_id":477227578}},{"type":"Feature","geometry":{"type":"Point","coordinates":[-5.3990501,43.5478791]},"properties":{"name":"Faro de Tazones","osm_id":477284143}},{"type":"Feature","geometry":{"type":"Point","coordinates":[-86.2475833,45.9448079]},"properties":{"name":"Manistique East Breakwater Lighthouse","osm_id":478353679}},{"type":"Feature","geometry":{"type":"Point","coordinates":[24.2829664,40.1571862]},"properties":{"name":"Unknown","osm_id":479200921}},{"type":"Feature","geometry":{"type":"Point","coordinates":[-122.026736,36.9514859]},"properties":{"name":"Santa Cruz Lighthouse","osm_id":479492430}},{"type":"Feature","geometry":{"type":"Point","coordinates":[-66.1248888,48.0869476]},"properties":{"name":"Phare de Carleton","osm_id":479600509}},{"type":"Feature","geometry":{"type":"Point","coordinates":[-4.7321268,48.5865626]},"properties":{"name":"Corn ar'Che","osm_id":479846826}},{"type":"Feature","geometry":{"type":"Point","coordinates":[13.1132353,54.3079616]},"properties":{"name":"Dв”ңГұnholm","osm_id":482689414}},{"type":"Feature","geometry":{"type":"Point","coordinates":[27.263977,36.9648658]},"properties":{"name":"Hв”ңв•қseyin Burnu Feneri","osm_id":482851469}},{"type":"Feature","geometry":{"type":"Point","coordinates":[-122.5747398,47.3265778]},"properties":{"name":"Gig Harbor Lighthouse","osm_id":483347164}},{"type":"Feature","geometry":{"type":"Point","coordinates":[-56.3988946,47.1050008]},"properties":{"name":"Phare de Cap Blanc","osm_id":484186505}},{"type":"Feature","geometry":{"type":"Point","coordinates":[10.235295,43.8622193]},"properties":{"name":"Unknown","osm_id":484604387}},{"type":"Feature","geometry":{"type":"Point","coordinates":[73.2725115,16.9880315]},"properties":{"name":"Unknown","osm_id":485571796}},{"type":"Feature","geometry":{"type":"Point","coordinates":[13.02431,54.447895]},"properties":{"name":"Bock rear / Zarrenzin front","osm_id":486519535}},{"type":"Feature","geometry":{"type":"Point","coordinates":[13.0305967,54.4431836]},"properties":{"name":"Bock front","osm_id":486519541}},{"type":"Feature","geometry":{"type":"Point","coordinates":[13.0144343,54.4264461]},"properties":{"name":"Zarrenzin rear","osm_id":486519552}},{"type":"Feature","geometry":{"type":"Point","coordinates":[13.1090674,58.7013067]},"properties":{"name":"Naven fyr","osm_id":488316701}},{"type":"Feature","geometry":{"type":"Point","coordinates":[-56.4024607,46.8223259]},"properties":{"name":"Phare de Pointe Plate","osm_id":488879987}},{"type":"Feature","geometry":{"type":"Point","coordinates":[-56.1545404,46.7817138]},"properties":{"name":"Phare de la Pointe Leconte","osm_id":489926480}},{"type":"Feature","geometry":{"type":"Point","coordinates":[9.4579395,53.7336594]},"properties":{"name":"Leuchtturm Steindeich","osm_id":489987464}},{"type":"Feature","geometry":{"type":"Point","coordinates":[-56.1661138,46.7813652]},"properties":{"name":"phare de la Pointe aux Canons","osm_id":490515051}},{"type":"Feature","geometry":{"type":"Point","coordinates":[-57.9556771,49.6029013]},"properties":{"name":"Lobster Cove Head Lighthouse","osm_id":491406196}},{"type":"Feature","geometry":{"type":"Point","coordinates":[-82.8413062,41.6289001]},"properties":{"name":"South Bass Island Light","osm_id":491516361}},{"type":"Feature","geometry":{"type":"Point","coordinates":[-82.9995113,41.8504099]},"properties":{"name":"Middle Sister Island Light","osm_id":491803135}},{"type":"Feature","geometry":{"type":"Point","coordinates":[-124.3502142,40.2493943]},"properties":{"name":"Punta Gorda Light House","osm_id":492004161}},{"type":"Feature","geometry":{"type":"Point","coordinates":[-48.5055487,-1.4652513]},"properties":{"name":"Farol de Belв”ңвҢҗm","osm_id":492028563}},{"type":"Feature","geometry":{"type":"Point","coordinates":[17.2215701,58.7017873]},"properties":{"name":"Ledskв”ңГұr","osm_id":492153107}},{"type":"Feature","geometry":{"type":"Point","coordinates":[-82.784283,41.6788583]},"properties":{"name":"Ballast Island Light Tower","osm_id":492456158}},{"type":"Feature","geometry":{"type":"Point","coordinates":[-75.6238081,45.4020986]},"properties":{"name":"Cape North Lighthouse","osm_id":493679185}},{"type":"Feature","geometry":{"type":"Point","coordinates":[0.363292,49.7656265]},"properties":{"name":"Phare de Fв”ңвҢҗcamp","osm_id":493872225}},{"type":"Feature","geometry":{"type":"Point","coordinates":[0.363645,49.7648019]},"properties":{"name":"Feu de la jetв”ңвҢҗe Sud","osm_id":493872264}},{"type":"Feature","geometry":{"type":"Point","coordinates":[-83.1223701,42.1356902]},"properties":{"name":"Livingstone Channel Upper Entrance Light","osm_id":493888568}},{"type":"Feature","geometry":{"type":"Point","coordinates":[-56.1483613,46.7985992]},"properties":{"name":"Rocher Petit Saint-Pierre","osm_id":493903457}},{"type":"Feature","geometry":{"type":"Point","coordinates":[-78.9271422,43.8499947]},"properties":{"name":"Unknown","osm_id":494322318}},{"type":"Feature","geometry":{"type":"Point","coordinates":[-56.1539208,46.7651261]},"properties":{"name":"Phare de Galantry","osm_id":494544967}},{"type":"Feature","geometry":{"type":"Point","coordinates":[-4.6944869,54.2260642]},"properties":{"name":"Unknown","osm_id":494597591}},{"type":"Feature","geometry":{"type":"Point","coordinates":[-86.7580348,45.5035555]},"properties":{"name":"Saint Martin Island Lighthouse","osm_id":495244464}},{"type":"Feature","geometry":{"type":"Point","coordinates":[-86.6666186,45.5224732]},"properties":{"name":"Poverty Island Lighthouse","osm_id":495388540}},{"type":"Feature","geometry":{"type":"Point","coordinates":[112.4453611,16.0261389]},"properties":{"name":"Вөв•ЎВ¬ОҰГЁв–’П„ГұГјП„ГјВ»ПғГӯГ¶","osm_id":495962885}},{"type":"Feature","geometry":{"type":"Point","coordinates":[5.7675577,43.080257]},"properties":{"name":"Phare du Grand Rouveau","osm_id":496228035}},{"type":"Feature","geometry":{"type":"Point","coordinates":[5.5542719,58.6580139]},"properties":{"name":"Obrestad fyr","osm_id":496277639}},{"type":"Feature","geometry":{"type":"Point","coordinates":[15.5908281,43.8361423]},"properties":{"name":"Unknown","osm_id":497328707}},{"type":"Feature","geometry":{"type":"Point","coordinates":[26.9482516,37.6867966]},"properties":{"name":"Unknown","osm_id":497590813}},{"type":"Feature","geometry":{"type":"Point","coordinates":[26.9582993,37.6903368]},"properties":{"name":"Unknown","osm_id":497593844}},{"type":"Feature","geometry":{"type":"Point","coordinates":[26.958863,37.6909897]},"properties":{"name":"Unknown","osm_id":497594021}},{"type":"Feature","geometry":{"type":"Point","coordinates":[-72.9121373,41.2344502]},"properties":{"name":"Southwest Ledge Light","osm_id":497739101}},{"type":"Feature","geometry":{"type":"Point","coordinates":[31.4377407,49.7737356]},"properties":{"name":"Unknown","osm_id":498342239}},{"type":"Feature","geometry":{"type":"Point","coordinates":[-2.6969786,56.2196207]},"properties":{"name":"Chalmers Lighthouse","osm_id":498847344}},{"type":"Feature","geometry":{"type":"Point","coordinates":[-2.729082,56.2104723]},"properties":{"name":"Unknown","osm_id":498851010}},{"type":"Feature","geometry":{"type":"Point","coordinates":[-3.73907,47.7997683]},"properties":{"name":"Phare de Port Manec'h","osm_id":500005640}},{"type":"Feature","geometry":{"type":"Point","coordinates":[-3.9257375,47.8578669]},"properties":{"name":"Le Cochon","osm_id":500005644}},{"type":"Feature","geometry":{"type":"Point","coordinates":[30.8722275,61.3781858]},"properties":{"name":"Unknown","osm_id":500419569}},{"type":"Feature","geometry":{"type":"Point","coordinates":[30.881185,61.3708808]},"properties":{"name":"Unknown","osm_id":500419571}},{"type":"Feature","geometry":{"type":"Point","coordinates":[-3.2802681,56.0225332]},"properties":{"name":"Oxcars Lighthouse","osm_id":500611296}},{"type":"Feature","geometry":{"type":"Point","coordinates":[13.182925,55.3673469]},"properties":{"name":"Unknown","osm_id":500907280}},{"type":"Feature","geometry":{"type":"Point","coordinates":[-55.3346277,49.1475717]},"properties":{"name":"Unknown","osm_id":500968008}},{"type":"Feature","geometry":{"type":"Point","coordinates":[-35.1853145,-5.795181]},"properties":{"name":"Farol de Mв”ңГәe Luiza","osm_id":501786700}},{"type":"Feature","geometry":{"type":"Point","coordinates":[10.4231123,54.8171522]},"properties":{"name":"Vejsnв”ңВӘs Nakke","osm_id":501848615}},{"type":"Feature","geometry":{"type":"Point","coordinates":[8.0528155,58.0722845]},"properties":{"name":"Oksв”ңв••y fyr","osm_id":506072159}},{"type":"Feature","geometry":{"type":"Point","coordinates":[30.9278836,61.3987179]},"properties":{"name":"Unknown","osm_id":506184322}},{"type":"Feature","geometry":{"type":"Point","coordinates":[17.4552115,59.4724307]},"properties":{"name":"Stora Gв”ңГ‘sholmen","osm_id":512558022}},{"type":"Feature","geometry":{"type":"Point","coordinates":[-28.7215043,38.6381245]},"properties":{"name":"Farolim dos Cedros","osm_id":512579124}},{"type":"Feature","geometry":{"type":"Point","coordinates":[17.4303905,59.4721468]},"properties":{"name":"Lastberget","osm_id":513756495}},{"type":"Feature","geometry":{"type":"Point","coordinates":[17.3980372,59.4349189]},"properties":{"name":"Ytterholmen","osm_id":513766889}},{"type":"Feature","geometry":{"type":"Point","coordinates":[14.1928894,55.3867084]},"properties":{"name":"Sandhammarens fyr","osm_id":513962861}},{"type":"Feature","geometry":{"type":"Point","coordinates":[12.7112029,55.8920391]},"properties":{"name":"Unknown","osm_id":513981440}},{"type":"Feature","geometry":{"type":"Point","coordinates":[12.4467269,56.3024581]},"properties":{"name":"Kullens vв”ңГұstra fyr","osm_id":513984491}},{"type":"Feature","geometry":{"type":"Point","coordinates":[13.8296219,55.4268683]},"properties":{"name":"Unknown","osm_id":513996991}},{"type":"Feature","geometry":{"type":"Point","coordinates":[10.0642385,42.3589461]},"properties":{"name":"Unknown","osm_id":515929087}},{"type":"Feature","geometry":{"type":"Point","coordinates":[10.8818647,42.5772643]},"properties":{"name":"Unknown","osm_id":516085712}},{"type":"Feature","geometry":{"type":"Point","coordinates":[16.2948094,41.3336247]},"properties":{"name":"Fanale Rosso Entrata Porto Barletta","osm_id":516365534}},{"type":"Feature","geometry":{"type":"Point","coordinates":[10.2112134,43.5914598]},"properties":{"name":"Faro settentrionale della Meloria","osm_id":516366144}},{"type":"Feature","geometry":{"type":"Point","coordinates":[12.438669,38.0433528]},"properties":{"name":"Unknown","osm_id":516366847}},{"type":"Feature","geometry":{"type":"Point","coordinates":[12.8604041,35.8565129]},"properties":{"name":"Unknown","osm_id":517387710}},{"type":"Feature","geometry":{"type":"Point","coordinates":[17.4817444,59.5136711]},"properties":{"name":"Fagerв”ңв•ўflisan","osm_id":519911979}},{"type":"Feature","geometry":{"type":"Point","coordinates":[15.1760829,37.5769093]},"properties":{"name":"Faro Sant'Anna","osm_id":520566860}},{"type":"Feature","geometry":{"type":"Point","coordinates":[-61.1092176,16.1706384]},"properties":{"name":"Phare","osm_id":521604098}},{"type":"Feature","geometry":{"type":"Point","coordinates":[-2.7528667,43.4542435]},"properties":{"name":"Matxitxako","osm_id":523936816}},{"type":"Feature","geometry":{"type":"Point","coordinates":[39.0660575,44.0863076]},"properties":{"name":"Unknown","osm_id":527372298}},{"type":"Feature","geometry":{"type":"Point","coordinates":[39.0689322,44.0869906]},"properties":{"name":"Unknown","osm_id":527372300}},{"type":"Feature","geometry":{"type":"Point","coordinates":[34.7770671,32.1035364]},"properties":{"name":"в•«вӮ§в•«ГҶв•«Гҙв•«ВЈв•«ГІв•«Вҝ в•«вҢҗв•«Гұв•«Гң в•«Г¶в•«Г–в•«Вҝв•«Вәв•«ГІв•«Ж’","osm_id":528227868}},{"type":"Feature","geometry":{"type":"Point","coordinates":[120.2808382,16.614861]},"properties":{"name":"San Fernando Point Lighthouse","osm_id":528711123}},{"type":"Feature","geometry":{"type":"Point","coordinates":[-81.4889511,45.9681571]},"properties":{"name":"Killarney Lightstation","osm_id":528952355}},{"type":"Feature","geometry":{"type":"Point","coordinates":[-76.3865183,44.125019]},"properties":{"name":"Unknown","osm_id":529166253}},{"type":"Feature","geometry":{"type":"Point","coordinates":[-76.3096098,44.203861]},"properties":{"name":"Unknown","osm_id":529166256}},{"type":"Feature","geometry":{"type":"Point","coordinates":[-76.3978142,44.2323235]},"properties":{"name":"Unknown","osm_id":529166258}},{"type":"Feature","geometry":{"type":"Point","coordinates":[-76.477852,44.229405]},"properties":{"name":"Unknown","osm_id":529166259}},{"type":"Feature","geometry":{"type":"Point","coordinates":[-76.1840724,44.2388209]},"properties":{"name":"Unknown","osm_id":529166260}},{"type":"Feature","geometry":{"type":"Point","coordinates":[-76.3069304,44.2461264]},"properties":{"name":"Unknown","osm_id":529166262}},{"type":"Feature","geometry":{"type":"Point","coordinates":[-76.2383182,44.2073709]},"properties":{"name":"Unknown","osm_id":529166263}},{"type":"Feature","geometry":{"type":"Point","coordinates":[-76.354317,44.135422]},"properties":{"name":"Unknown","osm_id":529166273}},{"type":"Feature","geometry":{"type":"Point","coordinates":[-76.4543608,44.2244677]},"properties":{"name":"Unknown","osm_id":529166277}},{"type":"Feature","geometry":{"type":"Point","coordinates":[-76.4504335,44.2336304]},"properties":{"name":"Unknown","osm_id":529166282}},{"type":"Feature","geometry":{"type":"Point","coordinates":[-76.328453,44.1942543]},"properties":{"name":"Unknown","osm_id":529166284}},{"type":"Feature","geometry":{"type":"Point","coordinates":[-76.3104129,44.2043856]},"properties":{"name":"Unknown","osm_id":529166287}},{"type":"Feature","geometry":{"type":"Point","coordinates":[-76.1845622,44.2385129]},"properties":{"name":"Unknown","osm_id":529166289}},{"type":"Feature","geometry":{"type":"Point","coordinates":[-76.4773274,44.2299268]},"properties":{"name":"Unknown","osm_id":529166291}},{"type":"Feature","geometry":{"type":"Point","coordinates":[-76.381667,44.2574426]},"properties":{"name":"Unknown","osm_id":529270178}},{"type":"Feature","geometry":{"type":"Point","coordinates":[-76.3271185,44.2770798]},"properties":{"name":"Unknown","osm_id":529270233}},{"type":"Feature","geometry":{"type":"Point","coordinates":[-76.1911991,44.2964562]},"properties":{"name":"Unknown","osm_id":529270239}},{"type":"Feature","geometry":{"type":"Point","coordinates":[-76.2858648,44.2991478]},"properties":{"name":"Unknown","osm_id":529270704}},{"type":"Feature","geometry":{"type":"Point","coordinates":[-76.2755182,44.3024501]},"properties":{"name":"Unknown","osm_id":529270718}},{"type":"Feature","geometry":{"type":"Point","coordinates":[-76.2492116,44.3041709]},"properties":{"name":"Unknown","osm_id":529270736}},{"type":"Feature","geometry":{"type":"Point","coordinates":[-76.1905264,44.3025576]},"properties":{"name":"Unknown","osm_id":529270808}},{"type":"Feature","geometry":{"type":"Point","coordinates":[-76.1833711,44.3112291]},"properties":{"name":"Unknown","osm_id":529270809}},{"type":"Feature","geometry":{"type":"Point","coordinates":[-76.1302099,44.2991673]},"properties":{"name":"Unknown","osm_id":529271173}},{"type":"Feature","geometry":{"type":"Point","coordinates":[-76.080659,44.3244687]},"properties":{"name":"Unknown","osm_id":529271610}},{"type":"Feature","geometry":{"type":"Point","coordinates":[-76.096228,44.3112504]},"properties":{"name":"Unknown","osm_id":529271616}},{"type":"Feature","geometry":{"type":"Point","coordinates":[-76.0039695,44.3499422]},"properties":{"name":"Unknown","osm_id":529271672}},{"type":"Feature","geometry":{"type":"Point","coordinates":[-1.1761594,54.6965071]},"properties":{"name":"The Heugh Lighthouse","osm_id":529453794}},{"type":"Feature","geometry":{"type":"Point","coordinates":[-83.1412453,42.0008189]},"properties":{"name":"Detroit River Light","osm_id":529600880}},{"type":"Feature","geometry":{"type":"Point","coordinates":[14.8997115,44.9903956]},"properties":{"name":"Unknown","osm_id":529686336}},{"type":"Feature","geometry":{"type":"Point","coordinates":[-38.460539,-3.7052805]},"properties":{"name":"Unknown","osm_id":529686387}},{"type":"Feature","geometry":{"type":"Point","coordinates":[-88.0505924,30.1877251]},"properties":{"name":"Sand Island Lighthouse","osm_id":530819568}},{"type":"Feature","geometry":{"type":"Point","coordinates":[-5.1084378,55.2519047]},"properties":{"name":"Unknown","osm_id":530944291}},{"type":"Feature","geometry":{"type":"Point","coordinates":[-5.5828323,55.2749629]},"properties":{"name":"Sanda Island Lighthouse","osm_id":530980938}},{"type":"Feature","geometry":{"type":"Point","coordinates":[-5.5405132,55.4280981]},"properties":{"name":"Davaar Lighthouse","osm_id":530980963}},{"type":"Feature","geometry":{"type":"Point","coordinates":[-5.1184424,55.4251585]},"properties":{"name":"Pladda Lighthouse","osm_id":530980965}},{"type":"Feature","geometry":{"type":"Point","coordinates":[-5.80803,49.9455928]},"properties":{"name":"Wolf Rock Lighthouse","osm_id":531724871}},{"type":"Feature","geometry":{"type":"Point","coordinates":[149.2755534,-37.8019218]},"properties":{"name":"Point Hicks","osm_id":533899305}},{"type":"Feature","geometry":{"type":"Point","coordinates":[-83.1118416,42.2699667]},"properties":{"name":"Unknown","osm_id":533970896}},{"type":"Feature","geometry":{"type":"Point","coordinates":[-4.4656322,48.0987883]},"properties":{"name":"Phare du Millier","osm_id":535700544}},{"type":"Feature","geometry":{"type":"Point","coordinates":[-82.9298784,42.3576085]},"properties":{"name":"Windmill Point Light","osm_id":537770587}},{"type":"Feature","geometry":{"type":"Point","coordinates":[-119.7226045,34.3963106]},"properties":{"name":"Santa Barbara Light","osm_id":538588117}},{"type":"Feature","geometry":{"type":"Point","coordinates":[-120.470796,34.4487007]},"properties":{"name":"Point Conception Light","osm_id":538659370}},{"type":"Feature","geometry":{"type":"Point","coordinates":[8.396068,53.6766206]},"properties":{"name":"Leuchtturm Robbenplate","osm_id":538969140}},{"type":"Feature","geometry":{"type":"Point","coordinates":[8.4075166,53.7301926]},"properties":{"name":"Leuchtturm Meyers Leegde neu","osm_id":538969141}},{"type":"Feature","geometry":{"type":"Point","coordinates":[8.4083188,53.7229819]},"properties":{"name":"Leuchtturm Meyers Leegde alt","osm_id":538969142}},{"type":"Feature","geometry":{"type":"Point","coordinates":[8.191083,53.797757]},"properties":{"name":"Leuchtturm Tegeler Plate","osm_id":538969145}},{"type":"Feature","geometry":{"type":"Point","coordinates":[-1.137441,54.6474079]},"properties":{"name":"Unknown","osm_id":538977739}},{"type":"Feature","geometry":{"type":"Point","coordinates":[0.2302645,38.7327629]},"properties":{"name":"Far del Cap de la Nau","osm_id":539380857}},{"type":"Feature","geometry":{"type":"Point","coordinates":[-68.3760885,12.3049287]},"properties":{"name":"Seru Bentana Lighthouse","osm_id":540032961}},{"type":"Feature","geometry":{"type":"Point","coordinates":[-68.2373018,12.0283185]},"properties":{"name":"Willemstoren Lighthouse","osm_id":540034414}},{"type":"Feature","geometry":{"type":"Point","coordinates":[-68.6432237,11.9898352]},"properties":{"name":"Vuurtoren van Klein Curacao","osm_id":540065089}},{"type":"Feature","geometry":{"type":"Point","coordinates":[-70.0513486,12.6137665]},"properties":{"name":"California Lighthouse","osm_id":540121391}},{"type":"Feature","geometry":{"type":"Point","coordinates":[-69.8691531,12.4182872]},"properties":{"name":"Sero Colorado Lighthouse","osm_id":540121392}},{"type":"Feature","geometry":{"type":"Point","coordinates":[12.4658972,56.8821577]},"properties":{"name":"Unknown","osm_id":545038595}},{"type":"Feature","geometry":{"type":"Point","coordinates":[-2.994671,51.5406228]},"properties":{"name":"West Usk Lighthouse","osm_id":548143136}},{"type":"Feature","geometry":{"type":"Point","coordinates":[-4.2892478,53.416286]},"properties":{"name":"Point Lynas Lighthouse","osm_id":552361746}},{"type":"Feature","geometry":{"type":"Point","coordinates":[-4.551099,48.0052273]},"properties":{"name":"Unknown","osm_id":553306638}},{"type":"Feature","geometry":{"type":"Point","coordinates":[15.7013194,55.9544858]},"properties":{"name":"Unknown","osm_id":553326869}},{"type":"Feature","geometry":{"type":"Point","coordinates":[15.7054122,55.9543672]},"properties":{"name":"Unknown","osm_id":553326916}},{"type":"Feature","geometry":{"type":"Point","coordinates":[25.1527124,35.348469]},"properties":{"name":"Unknown","osm_id":553896559}},{"type":"Feature","geometry":{"type":"Point","coordinates":[-79.3434159,43.6135422]},"properties":{"name":"Toronto Harbour Light","osm_id":555139156}},{"type":"Feature","geometry":{"type":"Point","coordinates":[-79.3469944,43.6348434]},"properties":{"name":"Unknown","osm_id":555139158}},{"type":"Feature","geometry":{"type":"Point","coordinates":[-79.3301302,43.6522295]},"properties":{"name":"Unknown","osm_id":555139166}},{"type":"Feature","geometry":{"type":"Point","coordinates":[-79.3336936,43.6506963]},"properties":{"name":"Unknown","osm_id":555139169}},{"type":"Feature","geometry":{"type":"Point","coordinates":[-79.3213725,43.6417044]},"properties":{"name":"Unknown","osm_id":555139172}},{"type":"Feature","geometry":{"type":"Point","coordinates":[-79.3532747,43.6381682]},"properties":{"name":"Unknown","osm_id":555139179}},{"type":"Feature","geometry":{"type":"Point","coordinates":[-4.5345554,43.399448]},"properties":{"name":"Faro Punta San Emeterio","osm_id":558564109}},{"type":"Feature","geometry":{"type":"Point","coordinates":[31.0806134,60.1187992]},"properties":{"name":"в•ЁвӮ§в•ӨГјв•Ёв••в•Ёв•ңв•Ёв•ӣв•Ёв–“в•Ёв•Ўв•ӨГҘв•Ёв•‘в•Ёв••в•Ёв•Ј в•Ёв•қв•Ёв–‘в•ӨГ…в•Ёв•‘","osm_id":558686562}},{"type":"Feature","geometry":{"type":"Point","coordinates":[-79.7904957,43.3010016]},"properties":{"name":"Burlington Front Light","osm_id":558743402}},{"type":"Feature","geometry":{"type":"Point","coordinates":[-79.8038282,43.2802821]},"properties":{"name":"Unknown","osm_id":558746376}},{"type":"Feature","geometry":{"type":"Point","coordinates":[-79.7987449,43.2791483]},"properties":{"name":"Unknown","osm_id":558746377}},{"type":"Feature","geometry":{"type":"Point","coordinates":[-119.4368532,33.2290771]},"properties":{"name":"San Nicolas Island East End Light","osm_id":559184018}},{"type":"Feature","geometry":{"type":"Point","coordinates":[-119.0303376,33.4874292]},"properties":{"name":"Santa Barbara Island Light","osm_id":559184020}},{"type":"Feature","geometry":{"type":"Point","coordinates":[-128.5237469,52.6429207]},"properties":{"name":"Boat Bluff Lighthouse","osm_id":559738240}},{"type":"Feature","geometry":{"type":"Point","coordinates":[6.9338401,46.9898045]},"properties":{"name":"Unknown","osm_id":559822311}},{"type":"Feature","geometry":{"type":"Point","coordinates":[-84.0225266,22.7154325]},"properties":{"name":"Faro de Cayo Jutв”ңВЎas","osm_id":560548697}},{"type":"Feature","geometry":{"type":"Point","coordinates":[-118.4916767,33.4631983]},"properties":{"name":"Ship Rock Light","osm_id":560634775}},{"type":"Feature","geometry":{"type":"Point","coordinates":[144.929498,-37.8371737]},"properties":{"name":"Port Melbourne Rear Light","osm_id":563791742}},{"type":"Feature","geometry":{"type":"Point","coordinates":[133.5581136,33.5040961]},"properties":{"name":"Unknown","osm_id":564443271}},{"type":"Feature","geometry":{"type":"Point","coordinates":[-118.1868787,33.7232263]},"properties":{"name":"Long Beach Light","osm_id":566859523}},{"type":"Feature","geometry":{"type":"Point","coordinates":[2.9282842,39.1542348]},"properties":{"name":"Baliв”ңВәa de la Punta de sa Creueta","osm_id":568050923}},{"type":"Feature","geometry":{"type":"Point","coordinates":[2.917222,39.1606366]},"properties":{"name":"Baliв”ңВәa del Cap de Llebeig","osm_id":568050929}},{"type":"Feature","geometry":{"type":"Point","coordinates":[-16.3452071,28.5562451]},"properties":{"name":"Unknown","osm_id":568377069}},{"type":"Feature","geometry":{"type":"Point","coordinates":[13.8396402,52.5057623]},"properties":{"name":"Unknown","osm_id":569071082}},{"type":"Feature","geometry":{"type":"Point","coordinates":[115.5041505,-32.0072709]},"properties":{"name":"Wadjemup Lighthouse","osm_id":571415472}},{"type":"Feature","geometry":{"type":"Point","coordinates":[8.476093,53.4651858]},"properties":{"name":"Unknown","osm_id":571424207}},{"type":"Feature","geometry":{"type":"Point","coordinates":[146.3555056,-41.1587289]},"properties":{"name":"Mersey Bluff Lighthouse","osm_id":571746634}},{"type":"Feature","geometry":{"type":"Point","coordinates":[-38.3536965,-12.9570966]},"properties":{"name":"Farol de Itapuв”ңГә","osm_id":575752550}},{"type":"Feature","geometry":{"type":"Point","coordinates":[40.682762,54.3441957]},"properties":{"name":"Unknown","osm_id":576274329}},{"type":"Feature","geometry":{"type":"Point","coordinates":[153.2890665,-27.5102129]},"properties":{"name":"Cleveland Point Lighthouse","osm_id":582441020}},{"type":"Feature","geometry":{"type":"Point","coordinates":[-87.9010668,44.6530668]},"properties":{"name":"Green Bay harbor Entrance Lighthouse","osm_id":582444779}},{"type":"Feature","geometry":{"type":"Point","coordinates":[-87.4295304,44.6067818]},"properties":{"name":"Algoma Lighthouse","osm_id":582446301}},{"type":"Feature","geometry":{"type":"Point","coordinates":[-88.5793477,48.089754]},"properties":{"name":"Rock Harbor Lighthouse","osm_id":582453473}},{"type":"Feature","geometry":{"type":"Point","coordinates":[-86.9366001,45.4205166]},"properties":{"name":"Boyer Bluff Lighthouse","osm_id":582699340}},{"type":"Feature","geometry":{"type":"Point","coordinates":[-86.9581275,45.3076522]},"properties":{"name":"Plum Island Range Rear Light","osm_id":582699343}},{"type":"Feature","geometry":{"type":"Point","coordinates":[-87.3133105,44.7950035]},"properties":{"name":"Sturgeon Bay Ship Canal Lighthouse","osm_id":582704597}},{"type":"Feature","geometry":{"type":"Point","coordinates":[-87.5089115,44.2106362]},"properties":{"name":"Rawley Point Lighthouse","osm_id":582707554}},{"type":"Feature","geometry":{"type":"Point","coordinates":[-87.5624102,44.1531001]},"properties":{"name":"Two Rivers Lighthouse","osm_id":582707558}},{"type":"Feature","geometry":{"type":"Point","coordinates":[-87.4928913,45.0564222]},"properties":{"name":"Green Island Lighthouse","osm_id":582711628}},{"type":"Feature","geometry":{"type":"Point","coordinates":[-87.5791168,44.9566335]},"properties":{"name":"Peshtigo Reef Lighthouse","osm_id":582712062}},{"type":"Feature","geometry":{"type":"Point","coordinates":[-88.3326168,43.9151666]},"properties":{"name":"Calumet Harbor Lighthouse","osm_id":582715733}},{"type":"Feature","geometry":{"type":"Point","coordinates":[-88.3626168,43.8735333]},"properties":{"name":"Fisherman's Road Lighthouse","osm_id":582715740}},{"type":"Feature","geometry":{"type":"Point","coordinates":[-88.4373973,43.7977328]},"properties":{"name":"Fond du Lac Lighthouse","osm_id":582716092}},{"type":"Feature","geometry":{"type":"Point","coordinates":[-88.5148005,44.0624189]},"properties":{"name":"Asylum Point Lighthouse","osm_id":582723561}},{"type":"Feature","geometry":{"type":"Point","coordinates":[-90.8049695,46.9705319]},"properties":{"name":"Raspberry Island Lighthouse","osm_id":582730404}},{"type":"Feature","geometry":{"type":"Point","coordinates":[-90.808916,46.7285906]},"properties":{"name":"Chequamegon Point Lighthouse","osm_id":582731665}},{"type":"Feature","geometry":{"type":"Point","coordinates":[-90.7851034,46.7286572]},"properties":{"name":"LaPointe Lighthouse","osm_id":582732864}},{"type":"Feature","geometry":{"type":"Point","coordinates":[-90.4433261,46.9068568]},"properties":{"name":"Gull Island Lighthouse","osm_id":582733847}},{"type":"Feature","geometry":{"type":"Point","coordinates":[-88.3658712,48.2235104]},"properties":{"name":"Passage Island Lighthouse","osm_id":582740373}},{"type":"Feature","geometry":{"type":"Point","coordinates":[-86.9985167,45.5815001]},"properties":{"name":"Minneapolis Shoal Lighthouse","osm_id":582742870}},{"type":"Feature","geometry":{"type":"Point","coordinates":[-87.8884637,43.323486]},"properties":{"name":"Kevich Lighthouse","osm_id":582772978}},{"type":"Feature","geometry":{"type":"Point","coordinates":[-87.7720289,42.7346038]},"properties":{"name":"Racine Breakwater Lighthouse","osm_id":582775150}},{"type":"Feature","geometry":{"type":"Point","coordinates":[-86.9669732,45.6680646]},"properties":{"name":"Peninsula Point Lighthouse","osm_id":582778544}},{"type":"Feature","geometry":{"type":"Point","coordinates":[-84.6168933,45.8372229]},"properties":{"name":"Round Island Lighthouse","osm_id":582778691}},{"type":"Feature","geometry":{"type":"Point","coordinates":[-84.7294694,45.7875141]},"properties":{"name":"Old Mackinac Point Lighthouse","osm_id":582779989}},{"type":"Feature","geometry":{"type":"Point","coordinates":[-84.7730634,45.7871401]},"properties":{"name":"McGulpin Point Lighthouse","osm_id":582779993}},{"type":"Feature","geometry":{"type":"Point","coordinates":[-84.8636364,45.8550875]},"properties":{"name":"St. Helena Island Lighthouse","osm_id":582780860}},{"type":"Feature","geometry":{"type":"Point","coordinates":[-85.9121859,45.9213443]},"properties":{"name":"Seul Choix Point Lighthouse","osm_id":582783104}},{"type":"Feature","geometry":{"type":"Point","coordinates":[-85.5735652,45.5756452]},"properties":{"name":"Beaver Head Lighthouse","osm_id":582784558}},{"type":"Feature","geometry":{"type":"Point","coordinates":[-85.5871802,45.840048]},"properties":{"name":"Squaw Island Lighthouse","osm_id":582784798}},{"type":"Feature","geometry":{"type":"Point","coordinates":[-85.8384182,45.3780771]},"properties":{"name":"South Fox Island Lighthouse","osm_id":582785101}},{"type":"Feature","geometry":{"type":"Point","coordinates":[-87.9835357,44.5960981]},"properties":{"name":"Long Tail Point Lighthouse","osm_id":582786291}},{"type":"Feature","geometry":{"type":"Point","coordinates":[-85.1723319,45.6763217]},"properties":{"name":"Skillagalee Island (Ile Aux Galets) Lighthouse","osm_id":582790726}},{"type":"Feature","geometry":{"type":"Point","coordinates":[-85.1534834,45.7658166]},"properties":{"name":"Grays Reef Lighthouse","osm_id":582790727}},{"type":"Feature","geometry":{"type":"Point","coordinates":[-85.0916861,45.7873296]},"properties":{"name":"Waugoshance Lighthouse","osm_id":582790728}},{"type":"Feature","geometry":{"type":"Point","coordinates":[-85.1356667,45.8416833]},"properties":{"name":"White Shoal Lighthouse","osm_id":582790729}},{"type":"Feature","geometry":{"type":"Point","coordinates":[-85.5617166,45.9037333]},"properties":{"name":"Lansing Shoal Lighthouse","osm_id":582790730}},{"type":"Feature","geometry":{"type":"Point","coordinates":[-27.9548079,39.014127]},"properties":{"name":"Farol do Carapacho","osm_id":583855645}},{"type":"Feature","geometry":{"type":"Point","coordinates":[22.8465511,63.9500759]},"properties":{"name":"Tankarin majakka","osm_id":585339006}},{"type":"Feature","geometry":{"type":"Point","coordinates":[-120.7608209,35.1603509]},"properties":{"name":"Point San Luis Lighthouse","osm_id":589004457}},{"type":"Feature","geometry":{"type":"Point","coordinates":[-9.2839934,32.5406407]},"properties":{"name":"Unknown","osm_id":589076741}},{"type":"Feature","geometry":{"type":"Point","coordinates":[9.1442188,41.2437272]},"properties":{"name":"Capo Testa","osm_id":592460854}},{"type":"Feature","geometry":{"type":"Point","coordinates":[142.2545919,-38.3909639]},"properties":{"name":"Griffiths Island Lighthouse","osm_id":597551261}},{"type":"Feature","geometry":{"type":"Point","coordinates":[-25.1356152,37.8241106]},"properties":{"name":"Farol do Arnel","osm_id":598921455}},{"type":"Feature","geometry":{"type":"Point","coordinates":[-16.140021,28.581323]},"properties":{"name":"Faro de Anaga","osm_id":599051999}},{"type":"Feature","geometry":{"type":"Point","coordinates":[3.1503063,42.2579493]},"properties":{"name":"Unknown","osm_id":599328653}},{"type":"Feature","geometry":{"type":"Point","coordinates":[4.5827297,52.4608497]},"properties":{"name":"Hoge vuurtoren van IJmuiden","osm_id":599514947}},{"type":"Feature","geometry":{"type":"Point","coordinates":[141.5428882,-38.430936]},"properties":{"name":"Cape Nelson Lighthouse","osm_id":599970425}},{"type":"Feature","geometry":{"type":"Point","coordinates":[-4.0960793,36.7350193]},"properties":{"name":"Faro Torre del Mar","osm_id":600148644}},{"type":"Feature","geometry":{"type":"Point","coordinates":[-4.0726458,36.7477388]},"properties":{"name":"Unknown","osm_id":601409824}},{"type":"Feature","geometry":{"type":"Point","coordinates":[8.4792197,53.4683975]},"properties":{"name":"Unknown","osm_id":602164178}},{"type":"Feature","geometry":{"type":"Point","coordinates":[8.4860308,53.4810106]},"properties":{"name":"Nordenham Oberfeuer","osm_id":602164179}},{"type":"Feature","geometry":{"type":"Point","coordinates":[-4.5462953,48.0159203]},